UUID,OBJEKTART,OBJEKTKLAS,NAME_UUID,NAME,STATUS,SPRACHCODE,NAMEN_TYP,NAMENGRUPP,E_EPSG2056,N_EPSG2056,LON_EPSG4326,LAT_EPSG4326
{392C3DF4-7C19-49B6-9313-8A309C9F69B5},Spitalareal,TLM_NUTZUNGSAREAL,{B713AABF-CA55-4A7D-BBF3-4F9D04922F04},Kantonsspital Winterthur,offiziell,Hochdeutsch inkl. Lokalsprachen,Einfacher Name,,2697156.8,1262590.5,8.728293,47.50688
{099B4016-28A7-4489-8A59-237B9E53162D},Spitalareal,TLM_NUTZUNGSAREAL,{52494A2D-FF1E-43C6-8F28-B3CFB7CC52B9},Psychiatrische Klinik Wil,offiziell,Hochdeutsch inkl. Lokalsprachen,Einfacher Name,,2720531.2,1258565.8,9.037406,47.46682
{3DD9F740-D7F9-4C59-9A25-EFAE231D6164},Spitalareal,TLM_NUTZUNGSAREAL,{9EAB22F2-BE16-45F4-8E4D-8EFE889C3A79},Clienia Littenheid AG,offiziell,Hochdeutsch inkl. Lokalsprachen,Einfacher Name,,2718432.8,1255559.4,9.00878,47.440166
{2DCAB7EE-CFE8-4B70-B905-4168DE4ECEC9},Spitalareal,TLM_NUTZUNGSAREAL,{EC8D0EF3-6271-4D8F-8769-255F4ACB8D98},Kantonsspital Schaffhausen,offiziell,Hochdeutsch inkl. Lokalsprachen,Einfacher Name,,2689878.5,1285306.5,8.636298,47.712193
{C0586CF6-18F5-4EF5-962C-FFD1FB4B7167},Spitalareal,TLM_NUTZUNGSAREAL,{DB30B181-66A3-4586-8EB2-A9F2BE31CFA4},"Spital Thurgau AG, Klinik St. Katharinental",offiziell,Hochdeutsch inkl. Lokalsprachen,Einfacher Name,,2697464.5,1283119.9,8.736886,47.691444
{49B8E801-C1AC-452D-BA9A-725B0B33BDCE},Spitalareal,TLM_NUTZUNGSAREAL,{0CB521A4-A675-4E4F-9584-FA7CCDFE69B4},"Klinik Seeschau AG, Kreuzlingen",offiziell,Hochdeutsch inkl. Lokalsprachen,Einfacher Name,,2729471.8,1278623.1,9.161803,47.645466
{519F0533-DA3A-4A23-9C6D-C59DF6A6D644},Spitalareal,TLM_NUTZUNGSAREAL,{6B580626-95C5-4030-8EFC-90DF0F2CFC83},"Venenklinik Bellevue, Kreuzlingen",offiziell,Hochdeutsch inkl. Lokalsprachen,Einfacher Name,,2729966,1279511.6,9.168639,47.65336
{EF9ECF58-9B1E-4402-AD31-1051A0F28205},Spitalareal,TLM_NUTZUNGSAREAL,{EA21E50F-6513-49A1-9057-BC08F59AE29F},Klinik Schloss Mammern,offiziell,Hochdeutsch inkl. Lokalsprachen,Einfacher Name,,2711290,1278333.9,8.919805,47.646206
{6C8600C1-E473-4F50-AF65-43930C8E94FD},Spitalareal,TLM_NUTZUNGSAREAL,{BA6BEA20-065B-4AEC-B715-BCBA3909A460},HELIOS Klinik Zihlschlacht,offiziell,Hochdeutsch inkl. Lokalsprachen,Einfacher Name,,2736817,1264477.4,9.255167,47.51679
{0BF09BE5-0CC2-4A40-9200-1E8C448B3E7B},Spitalareal,TLM_NUTZUNGSAREAL,{BA6BEA20-065B-4AEC-B715-BCBA3909A460},HELIOS Klinik Zihlschlacht,offiziell,Hochdeutsch inkl. Lokalsprachen,Einfacher Name,,2736931.8,1264432,9.256679,47.516357
{7F357542-A4EE-4840-8725-9B8078E11DDB},Spitalareal,TLM_NUTZUNGSAREAL,{62B810D1-E3EE-4AB3-B1BC-B3955BFB20F2},"Spital Thurgau AG, Kantonsspital Münsterlingen",offiziell,Hochdeutsch inkl. Lokalsprachen,Einfacher Name,,2734767.2,1277039.8,9.231776,47.630165
{4567C529-D59B-4C6B-97C6-39EA436E6707},Spitalareal,TLM_NUTZUNGSAREAL,{2215C7C9-B416-4533-AC23-5443652B327E},"Spital Thurgau AG, Psychiatrische Dienste, Münsterlingen",offiziell,Hochdeutsch inkl. Lokalsprachen,Einfacher Name,,2734644.5,1277468,9.230271,47.63404
{68C12325-40F7-408C-8107-B05DE6FB731F},Spitalareal,TLM_NUTZUNGSAREAL,{62B810D1-E3EE-4AB3-B1BC-B3955BFB20F2},"Spital Thurgau AG, Kantonsspital Münsterlingen",offiziell,Hochdeutsch inkl. Lokalsprachen,Einfacher Name,,2735065.5,1277053.6,9.235746,47.630226
{70140F01-B45D-44D8-B474-8010A18A7DF7},Spitalareal,TLM_NUTZUNGSAREAL,{A9EA39C6-A9B5-439C-9469-8A0B1640D236},Klinik St. Georg,offiziell,Hochdeutsch inkl. Lokalsprachen,Einfacher Name,,2753475,1260260.9,9.474794,47.475197
{CE02F968-C848-4561-84AE-4563270AD884},Spitalareal,TLM_NUTZUNGSAREAL,{5969A364-A864-44A2-B2F1-C46A5B432BE8},Thurklinik,offiziell,Hochdeutsch inkl. Lokalsprachen,Einfacher Name,,2728424.5,1256248.8,9.141404,47.444492
{F1B7F50F-8984-4BA6-A8CB-75778EB712A1},Spitalareal,TLM_NUTZUNGSAREAL,{9F2D06D6-8C2E-4133-84ED-B7A9434E58AD},Klinik Stephanshorn,offiziell,Hochdeutsch inkl. Lokalsprachen,Einfacher Name,,2748826.2,1256863.1,9.412009,47.445717
{BFFCDC8F-726C-4D52-9089-EEDB38534F7B},Spitalareal,TLM_NUTZUNGSAREAL,{E851E804-E3EB-4877-BD61-7E57F4011812},Geriatrische Klinik St. Gallen,offiziell,Hochdeutsch inkl. Lokalsprachen,Einfacher Name,,2747011,1254846.5,9.387286,47.427994
{280C5C35-63C4-4054-BBAA-76E333042678},Spitalareal,TLM_NUTZUNGSAREAL,{10942E65-A280-43B6-97E0-260E480EF866},"Kantonsspital St. Gallen, Standort St. Gallen",offiziell,Hochdeutsch inkl. Lokalsprachen,Einfacher Name,,2747070,1255156.2,9.388171,47.430767
{52AC16C4-78A3-4178-8F94-43D41C105F25},Spitalareal,TLM_NUTZUNGSAREAL,{73A2ED80-4318-4EF1-B637-D2C85E59FF86},Tumor- und Brustzentrum ZeTuP Silberturm,offiziell,Hochdeutsch inkl. Lokalsprachen,Einfacher Name,,2747579.5,1255191,9.394933,47.43096
{3996595F-461D-454F-8C47-AA505DCDA45E},Spitalareal,TLM_NUTZUNGSAREAL,{3216E869-68B2-4F4A-B154-C6B81123DDB6},Ostschweizer Kinderspital,offiziell,Hochdeutsch inkl. Lokalsprachen,Einfacher Name,,2747530.8,1255062.9,9.394246,47.42982
{231406A6-C4CE-4F2A-A49E-6117FB65FFB9},Spitalareal,TLM_NUTZUNGSAREAL,{208BCEB5-FA6E-42B3-A861-DDE147BAA539},Spital Heiden,offiziell,Hochdeutsch inkl. Lokalsprachen,Einfacher Name,,2757839,1256752.1,9.531424,47.44262
{7A6A886F-B667-4F6F-BC36-69279AF6F2C1},Spitalareal,TLM_NUTZUNGSAREAL,{6772CABA-1A75-4E67-A167-0CC1205F7843},Hirslanden Klinik Am Rosenberg,offiziell,Hochdeutsch inkl. Lokalsprachen,Einfacher Name,,2757484.8,1257164.9,9.526874,47.446415
{6D58EFF2-241D-444B-94C8-89DDFB504161},Spitalareal,TLM_NUTZUNGSAREAL,{B570AB10-8559-4F0B-BFAF-E76C4CB706CB},Rheinburg-Klinik,offiziell,Hochdeutsch inkl. Lokalsprachen,Einfacher Name,,2763373.5,1257799.1,9.605149,47.45068
{1D861189-68B0-4B7B-BD2B-58E8600A16BC},Spitalareal,TLM_NUTZUNGSAREAL,{AD1795A9-B31E-4870-9BED-1C8C953CDB56},Liechtensteinisches Landesspital Vaduz,offiziell,Hochdeutsch inkl. Lokalsprachen,Einfacher Name,,2758095.5,1222492,9.522755,47.134514
{BBDAFB4F-F4D8-4A60-BE7B-890A06E7E04D},Spitalareal,TLM_NUTZUNGSAREAL,{C11B39FC-C456-4DC4-BEE5-998DC8B20AB0},Spital Grabs,offiziell,Hochdeutsch inkl. Lokalsprachen,Einfacher Name,,2752384.2,1226739.4,9.448934,47.174046
{36D74C5D-0162-48F4-B827-BB0C741D1588},Spitalareal,TLM_NUTZUNGSAREAL,{C1608BD6-8DEF-4642-BBD1-02A1EFE0D88E},"Kantonsspital St. Gallen, Standort Flawil",offiziell,Hochdeutsch inkl. Lokalsprachen,Einfacher Name,,2731718,1253387.6,9.1842165,47.418114
{85859733-C1B2-4306-B59E-BC4BDD98EF50},Spitalareal,TLM_NUTZUNGSAREAL,{6C4A405F-AD1E-4532-BE41-CDE7B6F6D108},Spital Herisau,offiziell,Hochdeutsch inkl. Lokalsprachen,Einfacher Name,,2739262.8,1250203.2,9.283173,47.387928
{C3654C9A-F7D2-4FBD-8946-2BABD6DB2099},Spitalareal,TLM_NUTZUNGSAREAL,{AD77E985-EB44-4B5E-9DDE-A0E6A10931E7},Psychiatrisches Zentrum Appenzell Ausserrhoden,offiziell,Hochdeutsch inkl. Lokalsprachen,Einfacher Name,,2737767.5,1249998.5,9.263314,47.386402
{0D15573F-EE8C-4AB0-B848-E4C32ABF20E6},Spitalareal,TLM_NUTZUNGSAREAL,{5FD78580-6122-4ACF-8F52-EA0C057EA80A},Augenklinik Teufen,offiziell,Hochdeutsch inkl. Lokalsprachen,Einfacher Name,,2747162.2,1250940.6,9.388003,47.39284
{7E69F88F-CB40-41B6-8DFE-5A357E339B27},Spitalareal,TLM_NUTZUNGSAREAL,{C3325B97-9AB6-4440-8462-FE45D1E92BBF},Berit Klinik,offiziell,Hochdeutsch inkl. Lokalsprachen,Einfacher Name,,2745266.2,1250592.8,9.362787,47.390133
{ED500C46-2F08-4EA3-8CF2-5872D101A322},Spitalareal,TLM_NUTZUNGSAREAL,{9279CE59-E7FD-4606-A731-EB3BD886529B},Spital Altstätten,offiziell,Hochdeutsch inkl. Lokalsprachen,Einfacher Name,,2758722.8,1250129.4,9.540782,47.382862
{A637D253-BCD8-44B4-AA23-3FF385BCDE4B},Spitalareal,TLM_NUTZUNGSAREAL,{D5677B12-E773-41D5-8C13-61FCE3EF06E0},Klinik Gais AG,offiziell,Hochdeutsch inkl. Lokalsprachen,Einfacher Name,,2753701.2,1248712.6,9.473819,47.371315
{49E05B91-1883-477B-9E69-F97D361F6270},Spitalareal,TLM_NUTZUNGSAREAL,{96BE65D1-DA8F-4BE9-81D8-A2E4DB285797},Spital Walenstadt,offiziell,Hochdeutsch inkl. Lokalsprachen,Einfacher Name,,2742033.2,1220567.8,9.310491,47.120853
{FEBF1986-0DF9-4F2C-A64C-1FB292CC55E0},Spitalareal,TLM_NUTZUNGSAREAL,{D8CB4EBB-2CA1-44C9-86DB-BF359D75D3CF},Psychiatrische Klinik St. Pirminsberg,offiziell,Hochdeutsch inkl. Lokalsprachen,Einfacher Name,,2756883.8,1206451.9,9.501231,46.990574
{25835F12-359C-45D1-98BF-079456C6FF0B},Spitalareal,TLM_NUTZUNGSAREAL,{22FB18A8-07A1-4E5F-9D08-CB9F7E9AE9E9},"Ospedale Regionale di Lugano, Sede Civico",offiziell,Italienisch inkl. Lokalsprachen,Einfacher Name,,2717259.2,1097392,8.952761,46.0179
{10D63198-4CCE-46E7-AF20-A0580003298E},Spitalareal,TLM_NUTZUNGSAREAL,{79034B01-692F-42E3-8F50-8DEC80576AB8},Clinica Viarnetto,offiziell,Italienisch inkl. Lokalsprachen,Einfacher Name,,2718449.8,1097559,8.968171,46.01919
{29FF08AC-CFAA-4380-85EC-C3B8F6BE44EF},Spitalareal,TLM_NUTZUNGSAREAL,{FBE066AD-3D33-4559-998A-7F457B50133B},"Ospedale Regionale di Lugano, Sede Italiano",offiziell,Italienisch inkl. Lokalsprachen,Einfacher Name,,2717886.8,1096506.8,8.960638,46.009827
{EDE207E5-074F-4BE1-A3A6-44A26F63BB7A},Spitalareal,TLM_NUTZUNGSAREAL,{5F74FAEF-696B-4FBD-9194-B1D26285692D},Clinica Luganese,offiziell,Italienisch inkl. Lokalsprachen,Einfacher Name,,2716296.5,1095951.1,8.939975,46.005104
{64374E20-CA12-41D2-9CD5-EFE1E2850986},Spitalareal,TLM_NUTZUNGSAREAL,{3DAB1BE0-C853-4908-8B8C-A285B53B7EAB},Clinica Sant'Anna,offiziell,Italienisch inkl. Lokalsprachen,Einfacher Name,,2716211.8,1095406.1,8.9387455,46.000217
{C1F685D7-71EA-4048-835A-EF1BE03F2CB3},Spitalareal,TLM_NUTZUNGSAREAL,{6641632F-5558-4348-AD90-C7571F2BBE1A},Clinica Psichiatrica Cantonale,offiziell,Italienisch inkl. Lokalsprachen,Einfacher Name,,2719423.5,1079937.5,8.976281,45.86054
{8872C249-F7DD-4C06-92D1-F18E1E94659E},Spitalareal,TLM_NUTZUNGSAREAL,{E56EDEF5-C6C6-4360-BA78-7CDCE6A5CA91},"Ospedale Regionale Mendrisio, Sede Beata Vergine",offiziell,Italienisch inkl. Lokalsprachen,Einfacher Name,,2719888.5,1080673.6,8.982451,45.867077
{EA508A4E-3F20-4B46-8EAD-0B5588E48B54},Spitalareal,TLM_NUTZUNGSAREAL,{A645A4D4-07E0-48B0-A5C7-9CD7501E6050},Clinica Hildebrand,offiziell,Italienisch inkl. Lokalsprachen,Einfacher Name,,2698615,1108867.1,8.714472,46.12409
{03D30555-FA83-4712-AE70-D2DC62534E40},Spitalareal,TLM_NUTZUNGSAREAL,{9B49311A-1A9E-4C93-98D7-0D52BA2E94E2},Clinica Ars Medica,offiziell,Italienisch inkl. Lokalsprachen,Einfacher Name,,2714996.5,1099789,8.924136,46.039845
{E6E37203-578B-464D-B6D0-FB3C76360C7F},Spitalareal,TLM_NUTZUNGSAREAL,{F935FE98-89AE-448E-ACA2-6E2A1F3FBA49},Clinica di Riabilitazione di Novaggio,offiziell,Italienisch inkl. Lokalsprachen,Einfacher Name,,2709357.5,1096344.1,8.850508,46.009796
{E08C8A59-F433-45F8-A4AF-C9624313EFD5},Spitalareal,TLM_NUTZUNGSAREAL,{52B1D230-A381-4867-9E04-0A0688B3B7F4},Ospedale Malcantonese,offiziell,Italienisch inkl. Lokalsprachen,Einfacher Name,,2708509.8,1094349.9,8.839104,45.991997
{2E417CFD-BA5D-426C-B6E7-9C9134594DFD},Spitalareal,TLM_NUTZUNGSAREAL,{1461A2F6-568E-4E87-9928-F39F00A64759},HUG Hôpital de Bellerive,offiziell,Franzoesisch inkl. Lokalsprachen,Einfacher Name,,2504955,1123765,6.2059712,46.25858
{68420D90-F0D1-4C00-BF69-0D306A096097},Spitalareal,TLM_NUTZUNGSAREAL,{DF391BD9-46F8-42F6-97A6-46E1757E10F5},Hôpital de La Tour,offiziell,Franzoesisch inkl. Lokalsprachen,Einfacher Name,,2494209.2,1120612.2,6.0673475,46.228615
{FB3C3A8D-C01D-46B8-959A-F58414A40776},Spitalareal,TLM_NUTZUNGSAREAL,{389C8708-A6B8-44A5-A03A-FAF09423519F},HUG Hôpital de Loëx,offiziell,Franzoesisch inkl. Lokalsprachen,Einfacher Name,,2495534.5,1117294.9,6.085265,46.198986
{421A8F4B-FEDB-46EA-A1F2-C88180CB6AFD},Spitalareal,TLM_NUTZUNGSAREAL,{02B8DE6A-508B-4240-B575-1304A871F064},Clinique Vert-Pré,offiziell,Franzoesisch inkl. Lokalsprachen,Einfacher Name,,2502638.8,1115885.8,6.1775794,46.187378
{D6B13F3F-E8E5-4458-8382-A2C13CA9E293},Spitalareal,TLM_NUTZUNGSAREAL,{ED6241F1-0AD2-4012-AEE7-8415298D25BA},Clinique Générale-Baulieu,offiziell,Franzoesisch inkl. Lokalsprachen,Einfacher Name,,2501427.2,1116047,6.1618547,46.188652
{407BBD35-134E-454B-A4B5-FEE74FFD55CD},Spitalareal,TLM_NUTZUNGSAREAL,{9B8DFCFF-7650-4AEB-A441-E2F12447DB49},Clinique de Carouge,offiziell,Franzoesisch inkl. Lokalsprachen,Einfacher Name,,2499943.5,1115851.9,6.1426826,46.186676
{7C51CF85-7B71-40A3-B808-AAC24421C102},Spitalareal,TLM_NUTZUNGSAREAL,{7856CF1B-CB97-45E2-934D-854C6A3335A7},HUG Hôpital de Psychiatrie,offiziell,Franzoesisch inkl. Lokalsprachen,Einfacher Name,,2505047.2,1117946.6,6.2083497,46.20626
{E5A3A710-D6BB-4091-BA48-01A399CEF81D},Spitalareal,TLM_NUTZUNGSAREAL,{3D3CF78A-A9C6-4A24-8C56-A1359D4034D8},HUG Hôpital des Trois-Chêne,offiziell,Franzoesisch inkl. Lokalsprachen,Einfacher Name,,2505615,1118188.1,6.2156563,46.20851
{8CB7EA05-5BD8-404F-ADF3-40B97C2F98D9},Spitalareal,TLM_NUTZUNGSAREAL,{CAD43A78-15CA-4625-943D-CE362DEFA214},Clinique de Joli-Mont,offiziell,Franzoesisch inkl. Lokalsprachen,Einfacher Name,,2498100,1119709.4,6.117967,46.221096
{BBCFCDB4-FC69-4F68-9B6D-B1CAC7F08C8C},Spitalareal,TLM_NUTZUNGSAREAL,{416F91F6-42F8-4428-8470-2721DBC0BDB0},Clinique Belmont,offiziell,Franzoesisch inkl. Lokalsprachen,Einfacher Name,,2501751.8,1117275.9,6.165799,46.199753
{23FD5F24-2C48-4541-AE45-AA7DD9E59F30},Spitalareal,TLM_NUTZUNGSAREAL,{95EDF62E-9465-4894-A7C8-F6E88B53F1FF},Clinique La Colline,offiziell,Franzoesisch inkl. Lokalsprachen,Einfacher Name,,2500493.8,1116378.9,6.1496944,46.191498
{381D17CA-4FF7-4D0A-8450-493F4244F6D0},Spitalareal,TLM_NUTZUNGSAREAL,{35D734AB-FA98-4629-9DDD-25AB547ED5AC},Hôpitaux Universitaires de Genève HUG,offiziell,Franzoesisch inkl. Lokalsprachen,Einfacher Name,,2500380,1116438.2,6.148209,46.192017
{138F5506-A68C-4480-87C3-A07DC66EC3E6},Spitalareal,TLM_NUTZUNGSAREAL,{5F10B3CF-0A44-46EC-B016-DF29C1361165},GHOL - Hôpital de Nyon,offiziell,Franzoesisch inkl. Lokalsprachen,Einfacher Name,,2506823,1137613,6.2274146,46.383396
{F141E846-F199-4EAC-ABB0-FA42CBDF682A},Spitalareal,TLM_NUTZUNGSAREAL,{D0F0CDDE-4073-4EC2-89A1-DE81BB96B29F},Clinique de Genolier,offiziell,Franzoesisch inkl. Lokalsprachen,Einfacher Name,,2506105.5,1144499.4,6.2166934,46.445236
{F2E449FD-B080-4438-9115-E8C1142461EB},Spitalareal,TLM_NUTZUNGSAREAL,{756585EF-15D4-4160-8BAB-3DA2AA7FD2D5},Clinique La Lignière,offiziell,Franzoesisch inkl. Lokalsprachen,Einfacher Name,,2511750,1142185.4,6.290583,46.42519
{5C0DF41E-8073-4F8A-AE5F-AD8D1442C67D},Spitalareal,TLM_NUTZUNGSAREAL,{756585EF-15D4-4160-8BAB-3DA2AA7FD2D5},Clinique La Lignière,offiziell,Franzoesisch inkl. Lokalsprachen,Einfacher Name,,2511571,1142280,6.288237,46.426018
{A113A2C2-6038-49DC-969E-123C00D6E8DC},Spitalareal,TLM_NUTZUNGSAREAL,{A75D3810-E0BD-404E-B93C-D66CF0C75EF8},Hôpital psychogériatrique de Gimel,offiziell,Franzoesisch inkl. Lokalsprachen,Einfacher Name,,2513625.5,1152006.8,6.313141,46.513775
{BC63DA96-4059-4F5C-B5F1-53663DDCFF91},Spitalareal,TLM_NUTZUNGSAREAL,{33C831D5-A08D-4295-8C71-CC6FDBA14E36},EHC - Hôpital de Gilly,offiziell,Franzoesisch inkl. Lokalsprachen,Einfacher Name,,2513022.2,1147165,6.306196,46.47015
{246B15EF-B166-411F-8EB0-A929F36D8163},Spitalareal,TLM_NUTZUNGSAREAL,{87A2F1FD-0D4C-42B9-A3D0-3A8C7AC7C05E},CHUV Centre Universitaire de Traitements et Réadaptation Sylvana,offiziell,Franzoesisch inkl. Lokalsprachen,Einfacher Name,,2541527.5,1155176.8,6.6762886,46.545315
{63E4A4A1-7CDA-42EC-9DC9-E2DCD7A88C79},Spitalareal,TLM_NUTZUNGSAREAL,{83D98C4E-5190-4C44-9DCC-E97DE408C312},EHC - Hôpital d'Aubonne,offiziell,Franzoesisch inkl. Lokalsprachen,Einfacher Name,,2519399.8,1149461.4,6.3888187,46.491604
{71A1EA54-CBFC-4435-88D1-B9FE16E2DB9A},Spitalareal,TLM_NUTZUNGSAREAL,{AC378CC1-312E-48B6-AFF6-9D51E77F75CD},GHOL - Hôpital de Rolle,offiziell,Franzoesisch inkl. Lokalsprachen,Einfacher Name,,2516102.2,1146432.1,6.346425,46.46395
{806B472B-C9B2-4216-9322-F704D764A860},Spitalareal,TLM_NUTZUNGSAREAL,{F21B5128-89E0-4E68-A9A2-40CD5C227362},"Institution de Lavigny, Hôpital neurologique",offiziell,Franzoesisch inkl. Lokalsprachen,Einfacher Name,,2521256.5,1150734.1,6.412783,46.503273
{6FC6C43C-467F-4027-8393-E8C66560A934},Spitalareal,TLM_NUTZUNGSAREAL,{2F73F8B5-2A87-48A6-A5CD-D06894F5055A},Clinique de Montchoisi,offiziell,Franzoesisch inkl. Lokalsprachen,Einfacher Name,,2538374.2,1151249.1,6.635703,46.509705
{AAD0CF52-04B1-4445-B534-E8D402F2E73D},Spitalareal,TLM_NUTZUNGSAREAL,{3D54B3F5-D225-4D5F-8BE7-C993C6A218A4},Clinique Bois-Cerf,offiziell,Franzoesisch inkl. Lokalsprachen,Einfacher Name,,2537987.5,1151496.9,6.6306314,46.511894
{30CC28C7-4101-4F30-8BE6-A0F825C6A8E1},Spitalareal,TLM_NUTZUNGSAREAL,{B0FDA98E-84C1-4CE9-B482-A75AF78BC5CA},Clinique de Longeraie,offiziell,Franzoesisch inkl. Lokalsprachen,Einfacher Name,,2538412.5,1151936.5,6.6361094,46.51589
{4D5937EE-94F5-4FCE-ACF1-36557479D3CD},Spitalareal,TLM_NUTZUNGSAREAL,{E2A3AF59-C6C1-4CF2-96B5-3B0185209ACC},Hôpital de Lavaux,offiziell,Franzoesisch inkl. Lokalsprachen,Einfacher Name,,2545181.5,1149026.8,6.7246566,46.490307
{AB011A5C-571B-47DC-B515-C8ED5D175005},Spitalareal,TLM_NUTZUNGSAREAL,{101B8922-6CFC-4026-8F6B-162E7901D2B6},EHC - Hôpital de Morges,offiziell,Franzoesisch inkl. Lokalsprachen,Einfacher Name,,2527988.8,1152748.1,6.5001674,46.52215
{E4637D41-58BF-4E2A-B958-E43A114FD202},Spitalareal,TLM_NUTZUNGSAREAL,{2AAD7E4A-DD06-4FBF-8B12-BE511FD9B7E2},Clinique de la Source,offiziell,Franzoesisch inkl. Lokalsprachen,Einfacher Name,,2537816.2,1153212.1,6.6281676,46.52731
{FAA8B722-FB44-4541-94B1-CF8E0B7447D0},Spitalareal,TLM_NUTZUNGSAREAL,{D4D452F1-16B3-46DB-9186-3345F3B23CCD},Hôpital ophtalmique Jules-Gonin,offiziell,Franzoesisch inkl. Lokalsprachen,Einfacher Name,,2537396,1152911.6,6.622732,46.524567
{369F3579-582A-43BA-A081-8583CD0277FC},Spitalareal,TLM_NUTZUNGSAREAL,{37DF2AC7-4622-48BE-A4F0-B58B31E8BC78},CHUV Centre Hospitalier Universitaire Vaudois Lausanne,offiziell,Franzoesisch inkl. Lokalsprachen,Einfacher Name,,2538591.8,1152878.2,6.63832,46.524376
{6865C234-05DE-49E1-BD27-29AAD40AEC67},Spitalareal,TLM_NUTZUNGSAREAL,{37DF2AC7-4622-48BE-A4F0-B58B31E8BC78},CHUV Centre Hospitalier Universitaire Vaudois Lausanne,offiziell,Franzoesisch inkl. Lokalsprachen,Einfacher Name,,2538961.5,1152972.5,6.643126,46.525257
{E4C3F480-9A22-40F9-BD58-DE964CC5F145},Spitalareal,TLM_NUTZUNGSAREAL,{1FEAB842-FB0D-4571-8C9A-930B7D1BC9C6},CHUV Hôpital orthopédique,offiziell,Franzoesisch inkl. Lokalsprachen,Einfacher Name,,2539050,1153086.5,6.6442637,46.52629
{7B75C378-C5C9-4E6D-AFA9-608E429F48AC},Spitalareal,TLM_NUTZUNGSAREAL,{37DF2AC7-4622-48BE-A4F0-B58B31E8BC78},CHUV Centre Hospitalier Universitaire Vaudois Lausanne,offiziell,Franzoesisch inkl. Lokalsprachen,Einfacher Name,,2538721.5,1152882,6.640009,46.52442
{E90CC967-48FB-4A2C-B3A4-5E9B0E39962A},Spitalareal,TLM_NUTZUNGSAREAL,{37DF2AC7-4622-48BE-A4F0-B58B31E8BC78},CHUV Centre Hospitalier Universitaire Vaudois Lausanne,offiziell,Franzoesisch inkl. Lokalsprachen,Einfacher Name,,2538971.2,1153191.1,6.6432257,46.527225
{12B0C62F-3D15-4EF1-8A50-8EA3039E08F5},Spitalareal,TLM_NUTZUNGSAREAL,{37DF2AC7-4622-48BE-A4F0-B58B31E8BC78},CHUV Centre Hospitalier Universitaire Vaudois Lausanne,offiziell,Franzoesisch inkl. Lokalsprachen,Einfacher Name,,2539196,1153287.1,6.6461425,46.52811
{DB00BDEB-FB4C-4F11-AE93-E49B52DE4BE7},Spitalareal,TLM_NUTZUNGSAREAL,{5F26F714-7BB5-437C-8EBE-A46CB062D0B3},"CHUV Clinique psychiatrique universitaire, Site de Cery",offiziell,Franzoesisch inkl. Lokalsprachen,Einfacher Name,,2536259.2,1155419.2,6.6075716,46.547016
{8D3D9C00-2B9B-42E7-A04B-0D24A437FA3C},Spitalareal,TLM_NUTZUNGSAREAL,{512866F9-72C0-459F-871A-EEAF12276A80},CHUV Hôpital de l'Enfance de Lausanne,offiziell,Franzoesisch inkl. Lokalsprachen,Einfacher Name,,2536778,1153457.1,6.6146045,46.529415
{B5868296-2E85-4083-933D-C7811B2E3F7F},Spitalareal,TLM_NUTZUNGSAREAL,{376E711F-90B1-4865-BFE1-85C8E572814F},Clinique Cecil,offiziell,Franzoesisch inkl. Lokalsprachen,Einfacher Name,,2537298.2,1152429,6.621524,46.520214
{8E915089-6EF4-4DC6-992E-1C6C52385377},Spitalareal,TLM_NUTZUNGSAREAL,{11C224CF-204E-4B8D-94A8-FEF3F030AA76},Ospidal d'Engiadina Bassa Scuol,offiziell,Rumantsch Grischun inkl. Lokalsprachen,Einfacher Name,,2818688.2,1187193,10.303927,46.799957
{3F7192A4-3234-46D7-A5A2-D606116F540A},Spitalareal,TLM_NUTZUNGSAREAL,{729BA2AF-D0D2-41EA-B91B-ED3B21824638},Spital Davos,offiziell,Hochdeutsch inkl. Lokalsprachen,Einfacher Name,,2781393.8,1184564.4,9.814573,46.78753
{B2A472E2-2312-4CB3-8B12-281908162969},Spitalareal,TLM_NUTZUNGSAREAL,{82ECD346-F09E-4332-AA33-8AC49B3EB3BD},Zürcher RehaZentrum Davos,offiziell,Hochdeutsch inkl. Lokalsprachen,Einfacher Name,,2781474,1182499.2,9.814804,46.76894
{8B108A38-31F2-4085-932F-935D23D0483F},Spitalareal,TLM_NUTZUNGSAREAL,{919F1E77-6493-478D-9215-B286E3E1E3C6},Regionalspital Prättigau Schiers,offiziell,Hochdeutsch inkl. Lokalsprachen,Einfacher Name,,2771028,1204658.8,9.686418,46.970955
{B06CD190-A93F-4F03-B1F7-5C90706B443A},Spitalareal,TLM_NUTZUNGSAREAL,{78BE0ED9-EF55-4F4C-B534-786240C71B10},Kantonsspital Graubünden Standort Kreuzspital (KRZ),offiziell,Hochdeutsch inkl. Lokalsprachen,Einfacher Name,,2759951.5,1192040.5,9.536478,46.860252
{7420613B-16F2-4E3C-B6F3-F4301ED7FB01},Spitalareal,TLM_NUTZUNGSAREAL,{43E90AD6-0E39-4CB4-B776-612352E3F06A},Kantonsspital Graubünden Hauptstandort (KSH),offiziell,Hochdeutsch inkl. Lokalsprachen,Einfacher Name,,2760205.5,1192447.9,9.539951,46.863857
{5DAE548A-AEA0-4540-8D5B-6C9DFE024E06},Spitalareal,TLM_NUTZUNGSAREAL,{BA2565C3-DADA-43D0-8B51-F94F085C4379},KJPD-GR Chur Therapiehaus Fürstenwald,offiziell,Hochdeutsch inkl. Lokalsprachen,Einfacher Name,,2760229.5,1193888.8,9.5407715,46.87681
{3382F791-5872-4664-B6F6-776D8280CB7E},Spitalareal,TLM_NUTZUNGSAREAL,{F83FE10D-7C3E-490A-BCF5-9C5B5B2C77A1},Tumorzentrum ZeTuP Chur,offiziell,Hochdeutsch inkl. Lokalsprachen,Einfacher Name,,2759830.5,1191103.5,9.534562,46.851856
{1D6CF556-B6B5-48CA-81C6-2BE40A246696},Spitalareal,TLM_NUTZUNGSAREAL,{5B15E1E2-3480-4665-95ED-2359AD77EA41},Klinik Gut St Moritz,offiziell,Hochdeutsch inkl. Lokalsprachen,Einfacher Name,,2784195.8,1152283.9,9.83832,46.496517
{1474B685-EC19-4AD5-A1C6-B4E9FC6F4869},Spitalareal,TLM_NUTZUNGSAREAL,{AC4A0B20-2848-4D08-A699-5189D5A4645F},Spital Oberengadin,offiziell,Hochdeutsch inkl. Lokalsprachen,Einfacher Name,,2787131,1157207.4,9.8785305,46.53997
{9BF30D13-B940-487E-AA9D-8479F8C5AFF9},Spitalareal,TLM_NUTZUNGSAREAL,{53532209-DB82-44B4-A822-FCFEFD931370},Centro Sanitario Bregaglia,offiziell,Italienisch inkl. Lokalsprachen,Einfacher Name,,2761977.2,1133874.5,9.542577,46.33672
{28A7EF2B-A51D-4EC6-A32D-6D6ED8AB46D6},Spitalareal,TLM_NUTZUNGSAREAL,{D318799D-8226-479F-8069-5B262982D2CA},Ospedale San Sisto Poschiavo,offiziell,Italienisch inkl. Lokalsprachen,Einfacher Name,,2802020.2,1133520.5,10.0622,46.32268
{176D861D-724F-4521-A5A8-B0AB59043B87},Spitalareal,TLM_NUTZUNGSAREAL,{0BDD05D1-2412-4A5A-9B85-D318150C65D8},Center da Sanadad Savognin,offiziell,Rumantsch Grischun inkl. Lokalsprachen,Einfacher Name,,2765657,1162708.1,9.600671,46.595097
{1B5A7357-0C05-4FAF-8DC8-F5C88CB13F13},Spitalareal,TLM_NUTZUNGSAREAL,{95380AF1-FC58-4ED3-96BD-F739C5BE7B48},Center da sandà Val Müstair,offiziell,Rumantsch Grischun inkl. Lokalsprachen,Einfacher Name,,2829334.2,1166094,10.432733,46.60672
{04C4AAA0-DEB2-4C50-8A18-4D3903B91563},Spitalareal,TLM_NUTZUNGSAREAL,{331FD016-D03F-462A-95FD-70AF3E0D4106},"Universitäre Psychiatrische Dienste Bern UPD, Standort Bolligenstrasse (Waldau-Areal)",offiziell,Hochdeutsch inkl. Lokalsprachen,Einfacher Name,,2603337,1201682.5,7.4824805,46.96621
{401433E5-856F-4CEF-859C-9442475FDE11},Spitalareal,TLM_NUTZUNGSAREAL,{D8B84EE4-1536-42B6-ADF3-50409AA4CA43},"Universitäre Psychiatrische Dienste Bern UPD, Kinder- und Jugendpsychiatrische Klinik Neuhaus",offiziell,Hochdeutsch inkl. Lokalsprachen,Einfacher Name,,2603604.5,1202003.1,7.4859967,46.969093
{8B0C681E-575B-4066-AE00-1145F7F3AE25},Spitalareal,TLM_NUTZUNGSAREAL,{5A3E6849-C195-497D-98BA-4A55227F235D},"Hirslanden, Klinik Permanence",offiziell,Hochdeutsch inkl. Lokalsprachen,Einfacher Name,,2596482.2,1199281.8,7.3924274,46.94461
{9F791493-939B-4488-99AA-6FA3864DC705},Spitalareal,TLM_NUTZUNGSAREAL,{60D7DBEC-6DA2-4356-9AF5-B4931A898422},Klinik Siloah,offiziell,Hochdeutsch inkl. Lokalsprachen,Einfacher Name,,2606007,1197828.2,7.5175138,46.931522
{5558055B-7C40-405F-8134-BDE874B438FF},Spitalareal,TLM_NUTZUNGSAREAL,{DA980D43-AD0A-4027-9FB1-6005677F5444},Sonnenhofspital,offiziell,Hochdeutsch inkl. Lokalsprachen,Einfacher Name,,2602727.5,1199075,7.4744573,46.942757
{00E413AE-5E54-4888-8310-4D426CB2FE9F},Spitalareal,TLM_NUTZUNGSAREAL,{8BCDD66F-B663-47C6-A328-DD2BE2B58830},"Spital Münsingen, Insel Gruppe",offiziell,Hochdeutsch inkl. Lokalsprachen,Einfacher Name,,2609877,1191165.8,7.5681877,46.871544
{94375D0F-4549-441F-9215-06DB244897FB},Spitalareal,TLM_NUTZUNGSAREAL,{620AFB1E-C9FA-426B-B3F0-4EACEF5B52FC},PZM Psychiatriezentrum Münsingen,offiziell,Hochdeutsch inkl. Lokalsprachen,Einfacher Name,,2608685,1192208.1,7.5525723,46.880936
{254D096D-39E7-4480-AF7E-365188C4381B},Spitalareal,TLM_NUTZUNGSAREAL,{620AFB1E-C9FA-426B-B3F0-4EACEF5B52FC},PZM Psychiatriezentrum Münsingen,offiziell,Hochdeutsch inkl. Lokalsprachen,Einfacher Name,,2608419,1192200.4,7.549082,46.88087
{0FA5AE11-7867-4D4C-96F7-C44776941B17},Spitalareal,TLM_NUTZUNGSAREAL,{620AFB1E-C9FA-426B-B3F0-4EACEF5B52FC},PZM Psychiatriezentrum Münsingen,offiziell,Hochdeutsch inkl. Lokalsprachen,Einfacher Name,,2608427.8,1192145.5,7.5491977,46.88038
{F596D097-B1C2-4125-91F7-8B87C5F56233},Spitalareal,TLM_NUTZUNGSAREAL,{620AFB1E-C9FA-426B-B3F0-4EACEF5B52FC},PZM Psychiatriezentrum Münsingen,offiziell,Hochdeutsch inkl. Lokalsprachen,Einfacher Name,,2608661,1191960.2,7.552252,46.878708
{2FBE3FA3-CCF2-4211-8FEA-D8ACBFA05094},Spitalareal,TLM_NUTZUNGSAREAL,{5BF0CD6E-1C2B-4F19-A43F-6397CE03F0AC},"Spital und Altersheim Belp, Insel Gruppe",offiziell,Hochdeutsch inkl. Lokalsprachen,Einfacher Name,,2604248,1193449.1,7.494375,46.892143
{E5C5DC4D-998D-4DBA-AAC9-C8F01BC53DC4},Spitalareal,TLM_NUTZUNGSAREAL,{531F6E85-A00E-4A53-B283-60774A861C5D},"Spital Tiefenau, Insel Gruppe",offiziell,Hochdeutsch inkl. Lokalsprachen,Einfacher Name,,2601137,1202689.2,7.4535756,46.975273
{B54A3AE5-B6A5-4B73-8835-37296CFAC31A},Spitalareal,TLM_NUTZUNGSAREAL,{CE267FFB-9A38-4A0A-A424-B8344CABA70D},"Hirslanden, Klinik Beau-Site",offiziell,Hochdeutsch inkl. Lokalsprachen,Einfacher Name,,2600690.8,1200180.5,7.4477053,46.952705
{EEA9BD11-312F-47B0-97E7-072B8C93BFFB},Spitalareal,TLM_NUTZUNGSAREAL,{80FD7B18-CC8D-4A57-9B1E-E73A062554F1},Lindenhofspital Bern,offiziell,Hochdeutsch inkl. Lokalsprachen,Einfacher Name,,2599178,1200787.4,7.4278326,46.958164
{EC4F1A20-AD69-4794-BA03-303E60A14F9D},Spitalareal,TLM_NUTZUNGSAREAL,{EC9BD577-ACC9-47D4-BBBD-738A6049C9F6},"Stiftung Diaconis, Palliative Care",offiziell,Hochdeutsch inkl. Lokalsprachen,Einfacher Name,,2601361.5,1200129,7.4565167,46.95224
{BE108AB4-9A8E-45D0-A126-2A13A92A51FC},Spitalareal,TLM_NUTZUNGSAREAL,{D9332E43-F4CA-4373-941F-8E6524B62929},"Hirslanden, Salem-Spital",offiziell,Hochdeutsch inkl. Lokalsprachen,Einfacher Name,,2601169.5,1200104,7.4539967,46.95202
{CAF52066-DAD9-442F-8805-C20D164F41CA},Spitalareal,TLM_NUTZUNGSAREAL,{29AD9969-B89E-40A9-A4E2-CDEC70A59667},Engeriedspital,offiziell,Hochdeutsch inkl. Lokalsprachen,Einfacher Name,,2599894,1200986.1,7.4372406,46.959953
{9F550541-B74D-41D6-AB57-F8A33F227A82},Spitalareal,TLM_NUTZUNGSAREAL,{F256BE02-A120-4F87-8208-6C9FE80A3B98},Klinik Südhang,offiziell,Hochdeutsch inkl. Lokalsprachen,Einfacher Name,,2597847.2,1205691.2,7.4103255,47.002274
{130AE681-3C5C-4F6B-BAB9-282C177E92CD},Spitalareal,TLM_NUTZUNGSAREAL,{FCA65841-04DF-48B9-B3D3-8686F7DB75B1},"Hôpital intercantonal de la Broye, Site de Payerne",offiziell,Franzoesisch inkl. Lokalsprachen,Einfacher Name,,2562423.8,1185408.8,6.946238,46.818764
{1B9C8BB8-C5A1-42E3-B15D-C3A9ED723BDC},Spitalareal,TLM_NUTZUNGSAREAL,{190CE7BC-A859-45BB-BD48-B448A26AF8FF},"Spital Riggisberg, Insel Gruppe",offiziell,Hochdeutsch inkl. Lokalsprachen,Einfacher Name,,2603023.2,1184731.1,7.4782476,46.81373
{F6D647F4-DC46-4C87-95F9-B492766B87BA},Spitalareal,TLM_NUTZUNGSAREAL,{8D75164E-3CB7-40F8-B06C-C19A827EB4C4},"Inselspital, Universitätsspital Bern",offiziell,Hochdeutsch inkl. Lokalsprachen,Einfacher Name,,2598881,1199634.2,7.4239345,46.947792
{4DAB3AD3-9F80-4FBC-8A49-9BB7DAA02465},Spitalareal,TLM_NUTZUNGSAREAL,{8D75164E-3CB7-40F8-B06C-C19A827EB4C4},"Inselspital, Universitätsspital Bern",offiziell,Hochdeutsch inkl. Lokalsprachen,Einfacher Name,,2598877.8,1199458.6,7.423892,46.946213
{2CBCA891-5171-499C-83F0-27FDE572C91D},Spitalareal,TLM_NUTZUNGSAREAL,{8D75164E-3CB7-40F8-B06C-C19A827EB4C4},"Inselspital, Universitätsspital Bern",offiziell,Hochdeutsch inkl. Lokalsprachen,Einfacher Name,,2599040.5,1199482,7.4260306,46.946423
{05546FC3-3042-4F68-89CA-9EE26098FCFD},Spitalareal,TLM_NUTZUNGSAREAL,{8D75164E-3CB7-40F8-B06C-C19A827EB4C4},"Inselspital, Universitätsspital Bern",offiziell,Hochdeutsch inkl. Lokalsprachen,Einfacher Name,,2599140.8,1199744,7.4273443,46.94878
{BDB0DFEC-675E-4B84-AAAF-43B100FABE64},Spitalareal,TLM_NUTZUNGSAREAL,{032B4AAB-871F-4C48-96F1-AB71983855AE},"Universitäre Psychiatrische Dienste Bern UPD, Standort Murtenstrasse (Areal Inselspital)",offiziell,Hochdeutsch inkl. Lokalsprachen,Einfacher Name,,2599027.2,1199750.9,7.4258537,46.94884
{113AD08C-C90D-4792-ACE2-863FCE2CFBC4},Spitalareal,TLM_NUTZUNGSAREAL,{8D75164E-3CB7-40F8-B06C-C19A827EB4C4},"Inselspital, Universitätsspital Bern",offiziell,Hochdeutsch inkl. Lokalsprachen,Einfacher Name,,2599013.2,1199846.5,7.425671,46.949703
{818DAC18-DDF4-4B5A-B128-FE0707DAE3E8},Spitalareal,TLM_NUTZUNGSAREAL,{509C1F80-2D67-4D77-BEA7-8D4C5D25AE24},Soteria Bern,offiziell,Hochdeutsch inkl. Lokalsprachen,Einfacher Name,,2599260.5,1199893.5,7.428919,46.950123
{4CDA81D5-56B8-40FD-801F-F88715C2B75D},Spitalareal,TLM_NUTZUNGSAREAL,{DA0C4733-DFA7-4037-828F-C7EE2029B828},Hôpital Daler Fribourg,offiziell,Franzoesisch inkl. Lokalsprachen,Einfacher Name,,2577250.8,1183340.9,7.1406317,46.80084
{EA9711E1-E542-4515-A836-B9A49398D107},Spitalareal,TLM_NUTZUNGSAREAL,{EB82D689-F6DB-421D-A563-B572F27079F2},"hôpital fribourgeois HFR, Site de Fribourg, Hôpital cantonal",offiziell,Franzoesisch inkl. Lokalsprachen,Einfacher Name,,2577051.8,1183453,7.138019,46.801838
{E68349AA-C89B-4476-BFCB-8430DED2873F},Spitalareal,TLM_NUTZUNGSAREAL,{B93F4BCB-0904-4308-926C-BE735393A572},Clinique Générale Ste-Anne Fribourg,offiziell,Franzoesisch inkl. Lokalsprachen,Einfacher Name,,2578293.2,1183196,7.154294,46.79957
{0DEB6A8B-C1FF-4232-8176-6F7041117BB4},Spitalareal,TLM_NUTZUNGSAREAL,{D7DDF41A-29B0-4A54-95A9-138AD00248EF},"freiburger spital HFR, Standort Tafers",offiziell,Hochdeutsch inkl. Lokalsprachen,Einfacher Name,,2582709.2,1184368.8,7.212094,46.81025
{FB7964B0-FC4B-4D92-9A8F-590DB4DD909C},Spitalareal,TLM_NUTZUNGSAREAL,{8B9EC2D9-34A2-4B6B-9643-DE0A6AA0F66A},"Hôpital intercantonal de la Broye, Site d'Estavayer",offiziell,Franzoesisch inkl. Lokalsprachen,Einfacher Name,,2554675.5,1189051.1,6.844348,46.851044
{D8D4ABC0-B574-4B8F-8F0C-6F6AD0B84F28},Spitalareal,TLM_NUTZUNGSAREAL,{36792F22-D7E9-4C49-B603-B92F28BA8908},"Centre neuchâtelois de psychiatrie CNP, Site de Perreux",offiziell,Franzoesisch inkl. Lokalsprachen,Einfacher Name,,2552705,1199723,6.817401,46.9469
{790E51DC-15C9-4E88-9858-0B71019890B9},Spitalareal,TLM_NUTZUNGSAREAL,{699F0823-C6AE-4524-A23E-6293AB234AEE},"freiburger spital HFR, Standort Meyriez-Murten",offiziell,Hochdeutsch inkl. Lokalsprachen,Einfacher Name,,2574808.8,1196847,7.107893,46.92224
{BA045BB9-EB16-4EF6-A6FF-9C5EC2DAAF28},Spitalareal,TLM_NUTZUNGSAREAL,{105A9C56-9203-49B2-8C6F-7DEAE6EA0771},Hôpital de la Providence Neuchâtel,offiziell,Franzoesisch inkl. Lokalsprachen,Einfacher Name,,2561999.5,1205034.2,6.9390388,46.995274
{EB6D6321-DECF-46FD-9848-91C471C07170},Spitalareal,TLM_NUTZUNGSAREAL,{6435EB10-C882-4740-9901-4AC53B7E790D},Hôpital neuchâtelois Pourtalès,offiziell,Franzoesisch inkl. Lokalsprachen,Einfacher Name,,2562287.8,1205213.8,6.9428115,46.996906
{AF38A12E-791D-4795-A751-202D1C9FAF54},Spitalareal,TLM_NUTZUNGSAREAL,{969E0374-F662-4AC8-B21C-2BD6AE98CAD5},"Centre neuchâtelois de psychiatrie CNP, Site de Préfargier",offiziell,Franzoesisch inkl. Lokalsprachen,Einfacher Name,,2567351.5,1206123.1,7.0093203,47.005352
{D280074C-4274-48C5-87FE-6F49AED47812},Spitalareal,TLM_NUTZUNGSAREAL,{D5C4CC9B-998D-40A9-A97B-2ACE86187024},"hôpital fribourgeois HFR, Site de Billens",offiziell,Franzoesisch inkl. Lokalsprachen,Einfacher Name,,2558972.5,1171602,6.902255,46.694366
{FF4700BC-F253-46B1-9788-00F50CFAB78B},Spitalareal,TLM_NUTZUNGSAREAL,{7CD5DA05-012F-41A7-BB48-1EBC177689BE},"Spital STS AG, Spital Thun",offiziell,Hochdeutsch inkl. Lokalsprachen,Einfacher Name,,2614796,1178905.9,7.6323113,46.761173
{8092D5BA-8921-4108-A808-842ACFA004C9},Spitalareal,TLM_NUTZUNGSAREAL,{93B19C03-B52F-4923-B1DC-D1C7F23B5996},Privatklinik Hohmad,offiziell,Hochdeutsch inkl. Lokalsprachen,Einfacher Name,,2614240.5,1177613.9,7.6250014,46.74956
{AAC4B051-6C0E-4D9B-A2DC-568946B8493F},Spitalareal,TLM_NUTZUNGSAREAL,{D525B54F-4700-412F-A9CC-F56F91B15C9F},Berner REHA Zentrum Heiligenschwendi,offiziell,Hochdeutsch inkl. Lokalsprachen,Einfacher Name,,2619549.2,1177665.1,7.69448,46.74989
{037DD142-8F42-4269-96BB-2640B7790FA1},Spitalareal,TLM_NUTZUNGSAREAL,{8919C78E-8A2D-4C86-9EC3-D25DEEFDCB35},Klinik Schönberg Gunten,offiziell,Hochdeutsch inkl. Lokalsprachen,Einfacher Name,,2619949,1173768.2,7.6995425,46.714825
{358C900B-E400-4484-8263-2C832105A684},Spitalareal,TLM_NUTZUNGSAREAL,{942A7815-A206-443F-ACA9-5988DEA11915},"hôpital fribourgeois HFR, Site de Riaz",offiziell,Franzoesisch inkl. Lokalsprachen,Einfacher Name,,2570981.8,1165674.2,7.059633,46.641674
{BB9CA0F6-BD45-4381-B67A-EF54E178DE12},Spitalareal,TLM_NUTZUNGSAREAL,{995EEE7E-F106-43DC-8B46-690D8B40CA3E},"Réseau fribourgeois de santé mentale RFSM, Centre de soins hospitaliers - Marsens",offiziell,Franzoesisch inkl. Lokalsprachen,Einfacher Name,,2571536.2,1167280.1,7.066776,46.656147
{264386D0-DF51-4BBE-92EA-4A65E4D02C5F},Spitalareal,TLM_NUTZUNGSAREAL,{95511E12-9670-413A-B385-DC26B1D1314D},"Hôpital du Valais, Hôpital de Martigny",offiziell,Franzoesisch inkl. Lokalsprachen,Einfacher Name,,2571353.8,1105378.5,7.0682225,46.0993
{A57476D8-1AC6-419E-BAF6-9726F91F9AD9},Spitalareal,TLM_NUTZUNGSAREAL,{6C549B91-2E56-4CDC-8531-4415A63E5B99},Hôpital du Pays d'Enhaut,offiziell,Franzoesisch inkl. Lokalsprachen,Einfacher Name,,2577148.2,1147449.8,7.141079,46.477978
{D8819355-7617-46F6-9A90-883EECD239A0},Spitalareal,TLM_NUTZUNGSAREAL,{AAB83D64-6648-4533-8FEF-7D28AC493655},Hôpital psychiatrique de Nant,offiziell,Franzoesisch inkl. Lokalsprachen,Einfacher Name,,2555012.5,1147681.6,6.852826,46.47894
{77A1F33E-E1FB-415D-8093-E488BCD7A8B9},Spitalareal,TLM_NUTZUNGSAREAL,{6853270F-E5C0-44AE-B4BD-843E585914AD},"Hôpital du Valais, Clinique Saint-Amé",offiziell,Franzoesisch inkl. Lokalsprachen,Einfacher Name,,2565998.2,1118054.2,6.998049,46.213078
{60260138-37CF-4CCF-8A34-14C1506BA206},Spitalareal,TLM_NUTZUNGSAREAL,{236F2B07-4FB6-48E0-A0CE-D5B6731EC12B},"Hôpital du Valais, Hôpital de Sion",offiziell,Franzoesisch inkl. Lokalsprachen,Einfacher Name,,2595992.8,1120341,7.3866982,46.234497
{D353A626-AC9E-4892-A41D-11429148F29D},Spitalareal,TLM_NUTZUNGSAREAL,{7A0E22ED-3ED7-4C44-B98B-11855B447236},Clinique romande de réadaptation Sion,offiziell,Franzoesisch inkl. Lokalsprachen,Einfacher Name,,2596127.8,1120524.9,7.3884454,46.236153
{3C626675-928C-42A0-A5DE-E16E1E34985D},Spitalareal,TLM_NUTZUNGSAREAL,{9515A4EB-AC52-4ED4-8EAA-A7A28A01B312},Clinique de Valère Sion,offiziell,Franzoesisch inkl. Lokalsprachen,Einfacher Name,,2593702.2,1119878.6,7.357014,46.23032
{1792B87C-F2AC-49EE-BB25-FA85C7F1E65E},Spitalareal,TLM_NUTZUNGSAREAL,{33C1E734-3978-4F11-BBE1-83A0B03F3582},Clinique Bernoise Montana,offiziell,Franzoesisch inkl. Lokalsprachen,Einfacher Name,,2603677.5,1129141.1,7.486386,46.313663
{6E264EB1-2892-4896-8266-B66CDB3FEA3E},Spitalareal,TLM_NUTZUNGSAREAL,{B2B403A2-3F2F-49D5-829F-EB7CED73795A},"Spital STS AG, Spital Zweisimmen",offiziell,Hochdeutsch inkl. Lokalsprachen,Einfacher Name,,2594964.5,1156272,7.372973,46.557713
{5B646B34-D077-48A1-AB64-1A8F716BCED1},Spitalareal,TLM_NUTZUNGSAREAL,{A6B7E6B2-3B17-4087-A407-01F9C25E3B67},Leukerbad Clinic,offiziell,Hochdeutsch inkl. Lokalsprachen,Einfacher Name,,2614486.5,1136258.2,7.626927,46.37754
{2CD85407-DAB8-4FD3-8497-98061ACC5926},Spitalareal,TLM_NUTZUNGSAREAL,{FD3822B5-DA13-49D9-BF39-82C5280A5741},"Hôpital du Valais, Hôpital de Sierre",offiziell,Franzoesisch inkl. Lokalsprachen,Einfacher Name,,2606371.2,1126703.9,7.521321,46.291718
{027333F2-9133-4502-8C3F-6B35CBAC84F7},Spitalareal,TLM_NUTZUNGSAREAL,{233119FD-421B-4795-B90E-96EA73AAF5F9},"Hôpital du Valais, Centre Valaisan de Pneumologie",offiziell,Franzoesisch inkl. Lokalsprachen,Einfacher Name,,2603261.2,1127559.4,7.480969,46.299435
{1E2A8D71-70D0-4DE1-AB3C-3E3275A58347},Spitalareal,TLM_NUTZUNGSAREAL,{4C8286AB-994C-4FFB-9DDB-5F01D729B9AD},"Hôpital Riviera-Chablais, Site d'Aigle",offiziell,Franzoesisch inkl. Lokalsprachen,Einfacher Name,,2563473,1129002.5,6.964466,46.311428
{AE64CB4A-81B4-43C0-BA35-B12C613FDBDD},Spitalareal,TLM_NUTZUNGSAREAL,{F68191CA-3ACE-43E3-8880-CE6318B867C2},Fondation Miremont,offiziell,Franzoesisch inkl. Lokalsprachen,Einfacher Name,,2566914.2,1132345.4,7.0088997,46.34168
{EF8075A5-8973-4F92-A91C-25DF53D29AC3},Spitalareal,TLM_NUTZUNGSAREAL,{1681D8E0-5C83-477D-9320-D2873C36DA6A},"Hôpital du Valais, Hôpital psychiatrique de Malévoz",offiziell,Franzoesisch inkl. Lokalsprachen,Einfacher Name,,2561813.8,1122993.9,6.9434223,46.257286
{C2012ADA-EC78-4A53-9C54-BBAB6CFDF153},Spitalareal,TLM_NUTZUNGSAREAL,{204A97B6-56EB-4B36-89D6-07763FD200E5},"Hôpital Riviera-Chablais, Site de Monthey",offiziell,Franzoesisch inkl. Lokalsprachen,Einfacher Name,,2561640.5,1122366.5,6.9412255,46.251633
{2905A2A1-76C8-4C0E-A810-D493F1A9ABFB},Spitalareal,TLM_NUTZUNGSAREAL,{E7E7431D-E003-436F-BA6C-44E101A1C3D8},"Hôpital Riviera-Chablais, Site du Samaritain",offiziell,Franzoesisch inkl. Lokalsprachen,Einfacher Name,,2555097.8,1145675.4,6.8541293,46.4609
{83A8AA4A-D3E3-4F9C-ADB4-3E209D31A16D},Spitalareal,TLM_NUTZUNGSAREAL,{3CDEDE05-9D92-44D6-8706-1D615F37BE00},"Hôpital Riviera-Chablais, Site de la Providence",offiziell,Franzoesisch inkl. Lokalsprachen,Einfacher Name,,2555096,1145336.8,6.8541408,46.45785
{23266B65-779A-405A-94E5-C6AD3A79E434},Spitalareal,TLM_NUTZUNGSAREAL,{129D575B-6F9E-447C-B8D2-A086ADA1371E},Clinique la Prairie,offiziell,Franzoesisch inkl. Lokalsprachen,Einfacher Name,,2557369.2,1143706.6,6.88388,46.443336
{CAAF5CE3-8BCB-4F88-A2B3-3AAA2B8F9047},Spitalareal,TLM_NUTZUNGSAREAL,{71DD8CB4-61F4-4BBB-8722-A19D61685432},CIC Riviera,offiziell,Franzoesisch inkl. Lokalsprachen,Einfacher Name,,2557993.2,1143443.4,6.8920245,46.44101
{DCE46316-696B-44DA-A45C-7CE4CA6BC7B0},Spitalareal,TLM_NUTZUNGSAREAL,{749D03FB-7EFD-4BD1-88BC-24AA861328BA},"Hôpital Riviera-Chablais, Site de Mottex",offiziell,Franzoesisch inkl. Lokalsprachen,Einfacher Name,,2557467,1145606.9,6.8849764,46.460438
{A5DB3BDF-3BA9-47FF-A0A7-D75C5820F625},Spitalareal,TLM_NUTZUNGSAREAL,{DEC60B59-0C18-4C67-8BA0-BF7A16D582FD},"Hôpital Riviera-Chablais, Site de Montreux",offiziell,Franzoesisch inkl. Lokalsprachen,Einfacher Name,,2559223,1143296.2,6.908038,46.439762
{22477121-E2F4-4693-A7AB-60484A7DFDEA},Spitalareal,TLM_NUTZUNGSAREAL,{03F55013-B691-4A6C-84B4-48276EE08B66},Clinique Bon-Port Biotonus,offiziell,Franzoesisch inkl. Lokalsprachen,Einfacher Name,,2560083.2,1142134.8,6.9193325,46.429363
{8AC896BA-AB4A-496A-AC30-FF347C9A26A6},Spitalareal,TLM_NUTZUNGSAREAL,{E03F5A5C-847A-49A6-BD2E-3C60E1A06E4C},Laclinic SA,offiziell,Franzoesisch inkl. Lokalsprachen,Einfacher Name,,2560474.5,1141832.2,6.924448,46.426666
{CDDD206D-F495-4067-84FC-CFF0DF0ACFDB},Spitalareal,TLM_NUTZUNGSAREAL,{934DBBF3-2F6E-4F5C-8A4D-7D383B44E420},"Clinique Valmont, Clinique privée de réadaptation",offiziell,Franzoesisch inkl. Lokalsprachen,Einfacher Name,,2560969,1141788.2,6.930884,46.4263
{21DE6035-D4C7-4D07-9D04-69B5AC68175E},Spitalareal,TLM_NUTZUNGSAREAL,{CEB82CB9-C98A-48D4-BA1E-E19F939941C4},"spitäler fmi ag, Spital Frutigen",offiziell,Hochdeutsch inkl. Lokalsprachen,Einfacher Name,,2615564,1159239.6,7.6417017,46.584248
{53180D2F-0DFD-4AC3-BAB9-A0E47E5EA444},Spitalareal,TLM_NUTZUNGSAREAL,{BCDDEE87-B768-4371-B386-CDC21986F61A},Clinique Genevoise de Montana,offiziell,Franzoesisch inkl. Lokalsprachen,Einfacher Name,,2604276.2,1129446.6,7.494159,46.316406
{0D436C66-9352-46BD-92B3-79BEC46D50E7},Spitalareal,TLM_NUTZUNGSAREAL,{0C2FFD92-1383-4428-B718-C3E34B47707A},Clinique Lucernoise de Montana,offiziell,Franzoesisch inkl. Lokalsprachen,Einfacher Name,,2604561.2,1129513.1,7.497861,46.317005
{BD1B39E0-A8BF-4D78-8DC2-3C0647F65447},Spitalareal,TLM_NUTZUNGSAREAL,{DED271F3-A1D6-4565-87A6-6D99E059E7A5},"Klinik Sonnenhalde, Psychiatrie und Psychotherapie",offiziell,Hochdeutsch inkl. Lokalsprachen,Einfacher Name,,2616447.2,1270402.4,7.657253,47.58411
{25741644-EBBC-4154-BE70-2A55CB90C719},Spitalareal,TLM_NUTZUNGSAREAL,{21E8148C-E735-4A7D-88D4-0120DC87031E},Universitäts-Kinderspital beider Basel (UKBB),offiziell,Hochdeutsch inkl. Lokalsprachen,Einfacher Name,,2610763.5,1268108.4,7.5816455,47.5636
{B2945C73-710A-494C-BA83-197C774AF85D},Spitalareal,TLM_NUTZUNGSAREAL,{86FB4F76-A704-4D90-9C68-0105294D6073},"Universitätsspital Basel, Institut für Pathologie",offiziell,Hochdeutsch inkl. Lokalsprachen,Einfacher Name,,2610761,1267777.2,7.581602,47.56062
{42AC39B1-20D1-445A-AE89-98B6A02BF5F0},Spitalareal,TLM_NUTZUNGSAREAL,{3604B3DC-7AFD-443C-ADA7-A4D506B2A656},Adullam Spital Basel,offiziell,Hochdeutsch inkl. Lokalsprachen,Einfacher Name,,2610596,1267685.8,7.5794077,47.5598
{D80A6DC4-4761-4861-A03F-A58E10DECA56},Spitalareal,TLM_NUTZUNGSAREAL,{9278148A-F96F-4396-BFCB-79E062CF1822},"Universitätsspital Basel, Augenklinik",offiziell,Hochdeutsch inkl. Lokalsprachen,Einfacher Name,,2610361,1267978,7.5762935,47.56243
{1CF9DBA0-4E53-4076-8609-631B16F61CD4},Spitalareal,TLM_NUTZUNGSAREAL,{65606B3B-AE48-4D3E-B58E-2BEF05F91477},Universitätsspital Basel,offiziell,Hochdeutsch inkl. Lokalsprachen,Einfacher Name,,2610876.8,1267882.2,7.583143,47.56156
{A216F38A-8030-40DC-A3A6-E01B591BC284},Spitalareal,TLM_NUTZUNGSAREAL,{0E61D6AA-51EE-4193-948F-581E83F17E98},Merian Iselin Spital Basel,offiziell,Hochdeutsch inkl. Lokalsprachen,Einfacher Name,,2609856.2,1267219.1,7.569568,47.555614
{38F4B31D-1EE7-413F-8F61-3D0AF3910977},Spitalareal,TLM_NUTZUNGSAREAL,{0952A3A2-3A9B-45ED-8277-D2735FA17F22},"Universitätsspital Basel, Rossettibau",offiziell,Hochdeutsch inkl. Lokalsprachen,Einfacher Name,,2610906.8,1268078.8,7.583548,47.563328
{59C61809-0FC5-4F43-88D0-8522CA62F152},Spitalareal,TLM_NUTZUNGSAREAL,{17613D7E-E889-41BF-B7FF-13D748E52943},St. Claraspital Basel,offiziell,Hochdeutsch inkl. Lokalsprachen,Einfacher Name,,2613223.8,1268388.1,7.6143417,47.566067
{D8B3125F-CF84-41E8-A6FD-32B9D4FB3718},Spitalareal,TLM_NUTZUNGSAREAL,{7CFE1062-5C12-4E47-B2F0-738CA98CC897},Bethesda-Spital Basel,offiziell,Hochdeutsch inkl. Lokalsprachen,Einfacher Name,,2613389,1266357.4,7.616477,47.547802
{7E023AF6-1AA1-462C-A038-126996255441},Spitalareal,TLM_NUTZUNGSAREAL,{EE2041BB-B6C2-4CDE-BFCB-8B308E5CD170},Palliativzentrum Hildegard,offiziell,Hochdeutsch inkl. Lokalsprachen,Einfacher Name,,2612958.2,1266628.2,7.6107626,47.550247
{C6031A66-1C76-493B-9F6C-4C7B52AE78C6},Spitalareal,TLM_NUTZUNGSAREAL,{4C90E2FE-DD77-40CE-AE37-A45F1F2F5690},"Universitäre Psychiatrische Kliniken Basel, Kinderpsychiatrische Abteilung",offiziell,Hochdeutsch inkl. Lokalsprachen,Einfacher Name,,2612311.2,1267442.2,7.602192,47.55758
{B6FF1353-A6AF-4433-86AA-8CB758AC2BF7},Spitalareal,TLM_NUTZUNGSAREAL,{26462E13-A9EE-4C5D-ACBD-97956CB8AD56},Schmerzklinik Basel,offiziell,Hochdeutsch inkl. Lokalsprachen,Einfacher Name,,2611643.8,1266718,7.593303,47.55108
{19B1F899-0792-4C9E-A95A-C5E54FA0A07C},Spitalareal,TLM_NUTZUNGSAREAL,{432B3A8E-2132-4A63-A9B9-7EB4061DEF68},Felix Platter-Spital Basel,offiziell,Hochdeutsch inkl. Lokalsprachen,Einfacher Name,,2609550.8,1268230.6,7.565531,47.564716
{9DC0E760-6247-4DE8-8319-316F70FADC1F},Spitalareal,TLM_NUTZUNGSAREAL,{3C3F21FC-57D6-47D0-8AFD-25447EBC5385},"Universitäre Psychiatrische Kliniken Basel, Jugendpsychiatrische Abteilung",offiziell,Hochdeutsch inkl. Lokalsprachen,Einfacher Name,,2611258.2,1265612.6,7.5881543,47.54114
{AD7D14B1-9802-49F9-BC82-E4B5DD281B12},Spitalareal,TLM_NUTZUNGSAREAL,{EFD92250-B2D7-465A-8AEF-10D658401371},"Hirslanden, Klinik Birshof",offiziell,Hochdeutsch inkl. Lokalsprachen,Einfacher Name,,2612520,1264136.1,7.604874,47.527843
{6B3BF07B-45D2-4706-9523-40FCDF754DF3},Spitalareal,TLM_NUTZUNGSAREAL,{F2F2CD02-778F-4A9A-B5AD-E014B5663DF9},"Kantonsspital Baselland, Standort Bruderholz",offiziell,Hochdeutsch inkl. Lokalsprachen,Einfacher Name,,2610756.2,1264152.1,7.581453,47.528015
{2FEECF40-903A-48E3-AE30-3A513C4EB9FA},Spitalareal,TLM_NUTZUNGSAREAL,{D30DF90F-B62F-4438-A1E4-F83F58DDDFB3},Klinik Arlesheim,offiziell,Hochdeutsch inkl. Lokalsprachen,Einfacher Name,,2613289.5,1260523.1,7.6149817,47.49533
{5D6A01DF-C108-4DFE-BB83-F9E39501CDB2},Spitalareal,TLM_NUTZUNGSAREAL,{D30DF90F-B62F-4438-A1E4-F83F58DDDFB3},Klinik Arlesheim,offiziell,Hochdeutsch inkl. Lokalsprachen,Einfacher Name,,2613281,1260364.9,7.6148643,47.493908
{8BC8AF4B-E2DB-4B77-A0E3-78CF817013C7},Spitalareal,TLM_NUTZUNGSAREAL,{7F662D4C-F666-4C72-9A72-A05EB27319E4},"Solothurner Spitäler AG, Spital Dornach",offiziell,Hochdeutsch inkl. Lokalsprachen,Einfacher Name,,2613192.8,1259524.5,7.6136694,47.48635
{9F489FC3-24DA-4AFD-997E-D22971040651},Spitalareal,TLM_NUTZUNGSAREAL,{CA82B0A4-0E11-42DB-B61D-BB1B805632C0},"Hospiz im Park, Arlesheim",offiziell,Hochdeutsch inkl. Lokalsprachen,Einfacher Name,,2613173.5,1260138.8,7.613434,47.491875
{CA2D8838-254C-4528-8A8B-B5D55C23F2B5},Spitalareal,TLM_NUTZUNGSAREAL,{32A0834E-92B6-441D-9EC7-C4D500D0487B},Universitäre Psychiatrische Kliniken Basel,offiziell,Hochdeutsch inkl. Lokalsprachen,Einfacher Name,,2609511.5,1268983.2,7.5650277,47.571484
{12313483-4F60-49AE-9B38-FAFB47A74DAA},Spitalareal,TLM_NUTZUNGSAREAL,{CEAD3305-7F7A-45BD-9679-39031EDD5CF1},"REHAB Basel, Klinik für Neurorehabilitation und Paraplegiologie",offiziell,Hochdeutsch inkl. Lokalsprachen,Einfacher Name,,2609072.5,1269100.9,7.559195,47.57255
{5DDF7ED8-529F-4FAD-94D2-D1527ED996C2},Spitalareal,TLM_NUTZUNGSAREAL,{2A10B4C9-FEB5-4A41-9DCB-5B48D261F1EB},"Bürgerspital Basel, Reha Chrischona",offiziell,Hochdeutsch inkl. Lokalsprachen,Einfacher Name,,2618533.8,1268804,7.684921,47.569683
{E5D4878F-B3DE-43B0-B7BF-134A367CA008},Spitalareal,TLM_NUTZUNGSAREAL,{149C8B91-91FD-4F94-A1F5-834D89A9C4C3},"Hôpital du Jura bernois SA, Site de Moutier",offiziell,Franzoesisch inkl. Lokalsprachen,Einfacher Name,,2595098,1236797.9,7.373834,47.282055
{809AA217-EB15-406B-9C26-9550D77387DB},Spitalareal,TLM_NUTZUNGSAREAL,{58E71E22-6708-4543-895C-634748227650},"Hôpital du Jura, Site de Porrentruy",offiziell,Franzoesisch inkl. Lokalsprachen,Einfacher Name,,2571313,1252105.1,7.058472,47.419125
{DC525541-4B12-4A79-8117-339DC345F2BF},Spitalareal,TLM_NUTZUNGSAREAL,{EAB929AC-E413-43FE-A048-115EEFB52D2D},"eHnv - Hôpital La Vallée, Le Sentier",offiziell,Franzoesisch inkl. Lokalsprachen,Einfacher Name,,2506739.2,1161858,6.2214313,46.60146
{2A2AAB29-E609-4C6A-A106-657C3760FD95},Spitalareal,TLM_NUTZUNGSAREAL,{C93C49BF-FD79-4499-A9E1-B9EA5CF00A20},eHnv - Hôpital d'Yverdon-les-Bains,offiziell,Franzoesisch inkl. Lokalsprachen,Einfacher Name,,2539496.5,1180358.2,6.6464877,46.771645
{D29AFBD1-DD51-4CD6-BB23-D11B058F043C},Spitalareal,TLM_NUTZUNGSAREAL,{B78DC1D3-A62F-421E-A9BB-627C4793C935},"CHUV Département de psychiatrie, Centre de psychiatrie du Nord vaudois (CPNVD), Yverdon-les-Bains",offiziell,Franzoesisch inkl. Lokalsprachen,Einfacher Name,,2539577.8,1181496.8,6.6474013,46.78189
{886013A0-5BAE-4F3C-ADFA-7DC26E2893C7},Spitalareal,TLM_NUTZUNGSAREAL,{1A0333BD-6CCF-4B3D-9FE8-4208A3474136},eHnv - Hôpital Chamblon,offiziell,Franzoesisch inkl. Lokalsprachen,Einfacher Name,,2536638,1181238,6.608944,46.77929
{9AF70ED0-4DB3-4280-A9C2-85E69D670FF3},Spitalareal,TLM_NUTZUNGSAREAL,{57D09A07-C360-4002-AAB0-31B8148E8B48},"Hôpital du Jura, Site de Saignelégier",offiziell,Franzoesisch inkl. Lokalsprachen,Einfacher Name,,2566562.8,1234132.5,6.996869,47.257248
{A47A6AD3-19EB-4DE2-A947-998BAF8B8145},Spitalareal,TLM_NUTZUNGSAREAL,{9FA01B15-3C97-46BC-A2E3-DA0EAEAE8D0E},Clinique Le Noirmont,offiziell,Franzoesisch inkl. Lokalsprachen,Einfacher Name,,2563748.5,1231185.8,6.9599285,47.230595
{ADC97A77-9DEE-422C-A8EE-8E803B90DB3C},Spitalareal,TLM_NUTZUNGSAREAL,{F328412B-B5B8-4E0A-B649-1FB45890FF79},"Réseau santé mentale, Site de Bellelay",offiziell,Franzoesisch inkl. Lokalsprachen,Einfacher Name,,2579662.2,1234810.8,7.1699023,47.263885
{F112D7BA-2466-4707-BFE4-5F61A5E1D419},Spitalareal,TLM_NUTZUNGSAREAL,{EC7C7A75-9528-47D9-A7B4-F8527A9D7A04},eHnv - Hôpital St-Loup,offiziell,Franzoesisch inkl. Lokalsprachen,Einfacher Name,,2528461,1168777.1,6.5038266,46.666378
{E396E00D-FBE1-4C82-851D-58E24BF5E093},Spitalareal,TLM_NUTZUNGSAREAL,{62BAAB80-1DB5-4935-9810-51E964A2B907},"Hôpital du Jura, Site de Delémont",offiziell,Franzoesisch inkl. Lokalsprachen,Einfacher Name,,2592489.8,1246417.1,7.339196,47.36855
{E1F9E92E-2F3D-46D8-A5FC-572B32E91692},Spitalareal,TLM_NUTZUNGSAREAL,{734468F6-6208-4913-B2E7-182E0D45B243},"Centre médico-psychologique (CMP) pour enfants et adolescents, Delémont",offiziell,Franzoesisch inkl. Lokalsprachen,Endonym,{F292000F-712C-48CF-A418-61B7E707D79C},2592522.5,1246278.5,7.3396325,47.367306
{E1F9E92E-2F3D-46D8-A5FC-572B32E91692},Spitalareal,TLM_NUTZUNGSAREAL,{13DBF594-A71A-45F6-821D-3C4DF6F4007E},"Centre médico-psychologique (CMP) pour adultes, Delémont",offiziell,Franzoesisch inkl. Lokalsprachen,Endonym,{F292000F-712C-48CF-A418-61B7E707D79C},2592522.5,1246278.5,7.3396325,47.367306
{5B71008F-D6E5-4A42-BAF3-24A81C0F712B},Spitalareal,TLM_NUTZUNGSAREAL,{51AFB403-E074-443D-A3D7-15AA02BB9204},eHnv - Hôpital Orbe,offiziell,Franzoesisch inkl. Lokalsprachen,Einfacher Name,,2530811.2,1175732,6.5334845,46.729183
{852CA847-809C-4672-B1B8-1E94E537CFD3},Spitalareal,TLM_NUTZUNGSAREAL,{BE23F8FE-899A-4A84-A3C0-0580DBC9D8C5},Kantonsspital Laufen,offiziell,Hochdeutsch inkl. Lokalsprachen,Einfacher Name,,2604995.5,1252745.5,7.5048323,47.425495
{E946C0B2-10BE-4E5B-888C-4FFFA3B5DE93},Spitalareal,TLM_NUTZUNGSAREAL,{C2DC67AC-0350-4C67-B7BE-F4ED96087AD8},"Cikade Klinik, Reigoldswil",offiziell,Hochdeutsch inkl. Lokalsprachen,Einfacher Name,,2617754,1249966.5,7.6738124,47.40028
{BF1D33E1-79D8-4E27-8D14-2998227AD14D},Spitalareal,TLM_NUTZUNGSAREAL,{DDCC5E34-6C8F-46E0-82C0-AC947488665C},"SRO AG, Gesundheitszentrum Jura Süd",offiziell,Hochdeutsch inkl. Lokalsprachen,Einfacher Name,,2618696.8,1235670.5,7.685706,47.27167
{2BE8012C-7926-4AA5-BE02-B15CCA0FF347},Spitalareal,TLM_NUTZUNGSAREAL,{DB04C8E8-7F5D-4C31-AA6B-5FE00346B848},"Solothurner Spitäler AG, Psychiatrische Dienste, Kinder- und Jugendpsychiatrie",offiziell,Hochdeutsch inkl. Lokalsprachen,Einfacher Name,,2606971,1229696.5,7.530658,47.218166
{19D7492E-57C5-4F62-BA0A-19DD6390DFD7},Spitalareal,TLM_NUTZUNGSAREAL,{341EB7D8-3B08-41FC-9CD5-5566BEB9F081},"Solothurner Spitäler AG, Psychiatrische Dienste, Erwachsenenpsychiatrie",offiziell,Hochdeutsch inkl. Lokalsprachen,Einfacher Name,,2606220,1229625,7.5207415,47.21753
{F1814A96-64A0-44EB-A156-C915B59C89A7},Spitalareal,TLM_NUTZUNGSAREAL,{E303DF65-398B-43EE-A42A-4FC08F4CD4AD},"Privatklinik Obach, Solothurn",offiziell,Hochdeutsch inkl. Lokalsprachen,Einfacher Name,,2606959.5,1228251.9,7.5304837,47.20517
{8ECEE32E-5A34-4186-9817-BDA5091200E2},Spitalareal,TLM_NUTZUNGSAREAL,{516B0AA0-E7E8-44D1-B39B-EE40DB9D41D8},"Solothurner Spitäler AG, Bürgerspital Solothurn",offiziell,Hochdeutsch inkl. Lokalsprachen,Einfacher Name,,2607614,1227623.9,7.539112,47.199516
{3D5FED5A-9B6C-4216-A083-ACB43CB7849F},Spitalareal,TLM_NUTZUNGSAREAL,{763E7687-B712-439D-B837-2682DD19AA4C},"Solothurner Spitäler AG, Spital Grenchen",offiziell,Hochdeutsch inkl. Lokalsprachen,Einfacher Name,,2597623.5,1227439.4,7.4072666,47.197895
{C6DAB300-47B2-4808-9648-4A6D69F4110C},Spitalareal,TLM_NUTZUNGSAREAL,{446AAE72-32F8-4D67-BB3A-4F65A94DCB06},Privatklinik Linde Biel,offiziell,Hochdeutsch inkl. Lokalsprachen,Einfacher Name,,2586697.8,1220248,7.2632947,47.13308
{86559452-02F7-421C-9912-27157DEE46ED},Spitalareal,TLM_NUTZUNGSAREAL,{4BE21769-D10C-4C00-B372-F62D5EFB0BCB},Klinik Piano Biel,offiziell,Hochdeutsch inkl. Lokalsprachen,Einfacher Name,,2586904.8,1221482.4,7.265989,47.144184
{5468073D-B857-44A2-B91B-E232D2A5A806},Spitalareal,TLM_NUTZUNGSAREAL,{4B564E58-5D03-401A-B554-90C7A864858D},Spitalzentrum Biel AG,offiziell,Hochdeutsch inkl. Lokalsprachen,Einfacher Name,,2585306,1221805.9,7.2448993,47.14706
{2E1BACF6-ACBB-417B-A79A-27FD42735533},Spitalareal,TLM_NUTZUNGSAREAL,{4B3CF831-A15E-474C-A070-0C64AB2C0696},Klinik Bethesda Tschugg,offiziell,Hochdeutsch inkl. Lokalsprachen,Einfacher Name,,2572255.5,1208439.5,7.0736637,47.026413
{92B2D1D0-9558-4E4A-A155-7225106E2D32},Spitalareal,TLM_NUTZUNGSAREAL,{17C85C0C-EA41-429B-98D0-A3C822FDEA06},Privatklinik Wyss Münchenbuchsee,offiziell,Hochdeutsch inkl. Lokalsprachen,Einfacher Name,,2600854.8,1207383.4,7.4498744,47.017498
{FF23D30C-A3E1-4751-A237-BDFAAC206C28},Spitalareal,TLM_NUTZUNGSAREAL,{300789BC-134E-4A04-819B-AC728342FAF7},"Spital Netz Bern AG, Spital Aarberg",offiziell,Hochdeutsch inkl. Lokalsprachen,Einfacher Name,,2587917.2,1210795.9,7.2796235,47.04808
{0FACB5E1-7D55-4033-9D3B-02B38388A5D4},Spitalareal,TLM_NUTZUNGSAREAL,{6C9AB343-FD9C-4931-B23A-544745BC77A8},"Regionalspital Emmental AG, Standort Burgdorf",offiziell,Hochdeutsch inkl. Lokalsprachen,Einfacher Name,,2613842.2,1210828.6,7.620793,47.048344
{3B83D060-AF9F-4881-8AEF-C5E6A6F1615E},Spitalareal,TLM_NUTZUNGSAREAL,{353E77B9-124F-4B18-9922-0ED79F276306},Klinik Selhofen Burgdorf,offiziell,Hochdeutsch inkl. Lokalsprachen,Einfacher Name,,2614259,1211563.8,7.626302,47.054947
{FAE23396-0EFB-41BB-BE73-4FCDACE4E93D},Spitalareal,TLM_NUTZUNGSAREAL,{E431E26C-F415-46B6-A970-1E7975986B51},"Clinique Montbrillant, La Chaux-de-Fonds",offiziell,Franzoesisch inkl. Lokalsprachen,Einfacher Name,,2552999,1217334.2,6.8194327,47.10533
{D5FD7046-3988-4CE9-BBBE-7C1E0492B532},Spitalareal,TLM_NUTZUNGSAREAL,{283B127C-A88B-4C6B-8406-EAE4763B4948},"Hôpital neuchâtelois, Site de La Chrysalide",offiziell,Franzoesisch inkl. Lokalsprachen,Einfacher Name,,2553057.5,1216628.4,6.8202777,47.098984
{6FB3F64D-C3EC-4CA8-B44B-D7700761E01F},Spitalareal,TLM_NUTZUNGSAREAL,{B550E808-4BB5-4D93-BE69-F1B10831880C},"Hôpital neuchâtelois, Site de La Chaux-de-Fonds",offiziell,Franzoesisch inkl. Lokalsprachen,Einfacher Name,,2553943.8,1218329.6,6.8317785,47.11435
{69E2BC05-4150-440A-8603-48D4B3802BA0},Spitalareal,TLM_NUTZUNGSAREAL,{B550E808-4BB5-4D93-BE69-F1B10831880C},"Hôpital neuchâtelois, Site de La Chaux-de-Fonds",offiziell,Franzoesisch inkl. Lokalsprachen,Einfacher Name,,2554029.5,1218230.5,6.832917,47.113464
{78F9BCFA-6751-42C7-B63A-F6BAD0CE1BCA},Spitalareal,TLM_NUTZUNGSAREAL,{71A8DE14-0953-4F9D-A8AF-EFEE0B2A9DE0},"Hôpital du Jura bernois SA, Site de Saint-Imier",offiziell,Franzoesisch inkl. Lokalsprachen,Einfacher Name,,2565527.8,1222026.2,6.9841247,47.148308
{835197A7-5A99-4E49-84EF-7D78A3F6A748},Spitalareal,TLM_NUTZUNGSAREAL,{9205AB6E-B857-4600-B066-0A53665F4CCE},"Clinique de la Tour, La Chaux-de-Fonds",offiziell,Franzoesisch inkl. Lokalsprachen,Einfacher Name,,2553508.8,1216695.6,6.826215,47.099625
{A27C92C8-F4E4-4839-A021-A5295622BD05},Spitalareal,TLM_NUTZUNGSAREAL,{47D0D790-4EFD-47CA-BA19-32DA2BD157B1},"Hôpital neuchâtelois, Site de Val-de-Ruz",offiziell,Franzoesisch inkl. Lokalsprachen,Einfacher Name,,2559573,1209168.1,6.9067693,47.032314
{4E3D5560-D594-40AC-BE6C-FE1BD38D27E4},Spitalareal,TLM_NUTZUNGSAREAL,{A44127B0-7236-4CED-A012-70C08A17832F},"Hôpital neuchâtelois, Site de Le Locle",offiziell,Franzoesisch inkl. Lokalsprachen,Einfacher Name,,2547137.8,1212026.6,6.742842,47.057148
{7EDE31BF-5ABE-48EE-ACFD-71F85EEA623E},Spitalareal,TLM_NUTZUNGSAREAL,{8BF7FEFA-8B50-4C96-BD3C-68D0A8A45033},"Réseau Santé Balcon du Jura vaudois, Ste-Croix",offiziell,Franzoesisch inkl. Lokalsprachen,Einfacher Name,,2527980.8,1185767.2,6.494877,46.81915
{CD34F57C-C62C-4BA5-B245-CE4398213541},Spitalareal,TLM_NUTZUNGSAREAL,{6DEC492F-7898-4D2C-8AFA-ABDC098AC3ED},"GNW Spitalzentrum Oberwallis, Spital Visp",offiziell,Hochdeutsch inkl. Lokalsprachen,Einfacher Name,,2634316.2,1126339.5,7.883927,46.287598
{2F2E5D22-308E-48DD-B72D-9F63CEB6E7FC},Spitalareal,TLM_NUTZUNGSAREAL,{8D3ADCEF-2AEA-4180-9C75-2D95D91996FD},"Spital Wallis, Spital Brig",offiziell,Hochdeutsch inkl. Lokalsprachen,Einfacher Name,,2641836.2,1129668,7.981799,46.317112
{356A28F3-B6EA-42EA-8E09-5AE258269B07},Spitalareal,TLM_NUTZUNGSAREAL,{5A54A660-9FEE-46D8-AA92-1BBE0F5873E0},"Klinik im Hasel, Gontenschwil",offiziell,Hochdeutsch inkl. Lokalsprachen,Einfacher Name,,2651761.5,1235336.8,8.122603,47.266907
{067E7BD6-85CC-446C-B977-473EE1234452},Spitalareal,TLM_NUTZUNGSAREAL,{43570782-53E7-4002-BCBF-D423E36A7A9E},Kantonsspital Aarau AG,offiziell,Hochdeutsch inkl. Lokalsprachen,Einfacher Name,,2646933.8,1248859.9,8.060226,47.388897
{F001360B-FF26-4FE0-AA15-91DFDAE7E140},Spitalareal,TLM_NUTZUNGSAREAL,{838CC402-3FE8-4F87-8D4D-7B5B3B96E6FA},Klinik Barmelweid AG,offiziell,Hochdeutsch inkl. Lokalsprachen,Einfacher Name,,2640230,1252414.1,7.9717646,47.421307
{1164B864-88A3-4344-A697-0C91BB4AD8CA},Spitalareal,TLM_NUTZUNGSAREAL,{5A4C667E-2E85-4E13-B0C4-0315BF9CEA85},"Hirslanden, Klinik Aarau",offiziell,Hochdeutsch inkl. Lokalsprachen,Einfacher Name,,2645606.5,1249054.2,8.042668,47.39074
{17F0D207-21E3-4E9E-8673-F83DC9C66B31},Spitalareal,TLM_NUTZUNGSAREAL,{5FA46379-E80F-4FC2-8C6C-EE47B6EBB752},Spital Zofingen,offiziell,Hochdeutsch inkl. Lokalsprachen,Einfacher Name,,2638456.2,1238474.8,7.9470625,47.29604
{ACD51332-CF49-4DEA-8FE9-380313CA1273},Spitalareal,TLM_NUTZUNGSAREAL,{F9AAC08E-DF48-46FF-8AB0-E177841AE109},Kantonsspital Olten,offiziell,Hochdeutsch inkl. Lokalsprachen,Einfacher Name,,2635149.8,1245167.9,7.903871,47.356422
{A4F44DF8-FA41-4501-A696-306CE743E691},Spitalareal,TLM_NUTZUNGSAREAL,{6E418610-FBFF-4D4E-AC79-F2936106BE49},"Klinik Villa im Park AG, Rothrist",offiziell,Hochdeutsch inkl. Lokalsprachen,Einfacher Name,,2634465.8,1239472.9,7.894383,47.305237
{C16C36A8-9D19-41EA-A7C7-6F40751BED46},Spitalareal,TLM_NUTZUNGSAREAL,{EEB60220-2843-4791-AC7F-FD023D319878},"Luzerner Psychiatrie, Klinik St. Urban",offiziell,Hochdeutsch inkl. Lokalsprachen,Einfacher Name,,2630476,1231114.5,7.8410583,47.230255
{6CE1FFC0-2F56-4E24-A3E0-390C84FA77BC},Spitalareal,TLM_NUTZUNGSAREAL,{EE206230-000F-4A50-98DF-1BD3958DA2A0},Reha Rheinfelden,offiziell,Hochdeutsch inkl. Lokalsprachen,Einfacher Name,,2627733.5,1267626.4,7.8071046,47.558765
{4DBF29AF-29DE-4C17-BBCA-6E0515B25E25},Spitalareal,TLM_NUTZUNGSAREAL,{BB03E713-7876-45F7-8C54-BBA2CE703A16},"Gesundheitszentrum Fricktal AG, Spital Rheinfelden",offiziell,Hochdeutsch inkl. Lokalsprachen,Einfacher Name,,2627691.8,1267310.1,7.806529,47.555923
{8C7FDD3A-A0C1-44D3-9F65-82AC618DB078},Spitalareal,TLM_NUTZUNGSAREAL,{DF936125-16E4-4C4A-9795-A5CAB7CF7BDD},"Privatklinik Salina, Salina Medizin AG, Rheinfelden",offiziell,Hochdeutsch inkl. Lokalsprachen,Einfacher Name,,2627210,1267578.4,7.8001466,47.558357
{62CF879B-5C1F-46BF-991B-D182CA6CE7DB},Spitalareal,TLM_NUTZUNGSAREAL,{50E67899-B476-4DCC-90A1-97F8370415A8},Klinik Schützen Rheinfelden,offiziell,Hochdeutsch inkl. Lokalsprachen,Einfacher Name,,2626635.8,1266969.4,7.79248,47.552902
{DB2D5E87-A3A6-41DF-A1E6-F14FD9BCA9F1},Spitalareal,TLM_NUTZUNGSAREAL,{8BBB5609-45EA-4165-8254-87C618E7FAF2},"Gesundheitszentrum Fricktal AG, Spital Laufenburg",offiziell,Hochdeutsch inkl. Lokalsprachen,Einfacher Name,,2647111,1268103.1,8.064608,47.56195
{58417B2E-621D-4FF7-AB7C-A9C83F313032},Spitalareal,TLM_NUTZUNGSAREAL,{4063CEB4-D12A-4482-A9C5-3ED846D981CD},"Psychiatrie Baselland, Liestal",offiziell,Hochdeutsch inkl. Lokalsprachen,Einfacher Name,,2621340,1259989.2,7.7217913,47.49032
{C41407C8-E3AD-4895-A6CC-E61E896787A0},Spitalareal,TLM_NUTZUNGSAREAL,{4063CEB4-D12A-4482-A9C5-3ED846D981CD},"Psychiatrie Baselland, Liestal",offiziell,Hochdeutsch inkl. Lokalsprachen,Einfacher Name,,2621413.5,1259774.2,7.7227583,47.488384
{092F536C-4912-4D34-83CC-6EF9C18A2CDD},Spitalareal,TLM_NUTZUNGSAREAL,{4063CEB4-D12A-4482-A9C5-3ED846D981CD},"Psychiatrie Baselland, Liestal",offiziell,Hochdeutsch inkl. Lokalsprachen,Einfacher Name,,2621701,1259909.4,7.726579,47.48959
{8A6C03D3-4CE4-47A9-8203-7853A9899C73},Spitalareal,TLM_NUTZUNGSAREAL,{EA554BBE-7D4B-458A-9400-5EC607D1291E},"Kantonsspital Baselland, Standort Liestal",offiziell,Hochdeutsch inkl. Lokalsprachen,Einfacher Name,,2622048.8,1259738.8,7.7311864,47.48804
{B5790915-0261-4485-8FD6-6B4023C207E9},Spitalareal,TLM_NUTZUNGSAREAL,{F6BCEE89-DB01-47BA-92A7-AE1831CEE5A3},aarReha Schinznach,offiziell,Hochdeutsch inkl. Lokalsprachen,Einfacher Name,,2654728.8,1256560.2,8.164404,47.45755
{9CD979D2-6011-41AA-A4A1-DCAE6AA1A441},Spitalareal,TLM_NUTZUNGSAREAL,{379D76B3-DF91-4730-8305-698794F6AE7A},"Klinik Wysshölzli, Herzogenbuchsee",offiziell,Hochdeutsch inkl. Lokalsprachen,Einfacher Name,,2620993,1226030.5,7.715603,47.184895
{C2908E4B-70EE-4B1E-9EED-AD463972507D},Spitalareal,TLM_NUTZUNGSAREAL,{A259A429-29CF-49FA-858F-4738656CF3D3},"SRO AG, Spital Langenthal",offiziell,Hochdeutsch inkl. Lokalsprachen,Einfacher Name,,2626897.8,1229517.9,7.793714,47.21605
{DE647020-617A-47EA-BD63-D31630268CA8},Spitalareal,TLM_NUTZUNGSAREAL,{B1085245-546E-450D-9EF9-48784CC4F0FF},Klinik SGM Langenthal,offiziell,Hochdeutsch inkl. Lokalsprachen,Einfacher Name,,2625435.8,1229768.9,7.774427,47.218365
{0D92B6C7-3B7D-4D58-A6A0-B87A1985AF7C},Spitalareal,TLM_NUTZUNGSAREAL,{8921C18A-1776-4F27-A731-D7C889BA06CC},Luzerner Kantonsspital Sursee,offiziell,Hochdeutsch inkl. Lokalsprachen,Einfacher Name,,2651541.5,1224345.8,8.11844,47.168068
{795A1D38-C383-4892-BD07-05227691FA69},Spitalareal,TLM_NUTZUNGSAREAL,{78198840-595C-45A1-8710-1E58A5032FDD},"SRO AG, Gesundheitszentrum Huttwil",offiziell,Hochdeutsch inkl. Lokalsprachen,Einfacher Name,,2630371.8,1218447.2,7.8388314,47.11632
{3FF98A38-4767-487D-BE6C-000DAA93690F},Spitalareal,TLM_NUTZUNGSAREAL,{451C0688-A359-4AD3-84A9-1BFC6B29F217},"Schweizer Paraplegiker Zentrum, Nottwil",offiziell,Hochdeutsch inkl. Lokalsprachen,Einfacher Name,,2652511.5,1221457,8.130896,47.14201
{9164369B-FCDA-47D8-9417-C53D487206D1},Spitalareal,TLM_NUTZUNGSAREAL,{98563AC0-05EC-4C89-8FE7-05E79BDB2CD3},"Geburtshaus Terra Alta, Oberkirch",offiziell,Hochdeutsch inkl. Lokalsprachen,Einfacher Name,,2650106,1223636.6,8.099428,47.1618
{AC6FB91E-7F48-483D-B551-3E5D45B4FA84},Spitalareal,TLM_NUTZUNGSAREAL,{85E78741-9120-4936-BF00-46DABA2F7E00},Luzerner Kantonsspital Wolhusen,offiziell,Hochdeutsch inkl. Lokalsprachen,Einfacher Name,,2648261.5,1213024.9,8.073972,47.06649
{8BB7311A-53FE-4BE0-A833-BBE2AFF72DA4},Spitalareal,TLM_NUTZUNGSAREAL,{864B6378-D8FE-47ED-B3E7-35B6A4881019},"Ospedale Regionale di Bellinzona e Valli, Sede Faido",offiziell,Italienisch inkl. Lokalsprachen,Einfacher Name,,2704952,1148329.9,8.805332,46.47807
{16D48BE2-7684-4FB2-A94F-72C4445BDA4C},Spitalareal,TLM_NUTZUNGSAREAL,{AD37CEA1-D0FC-440C-A721-D1A427975CEA},"Regionalspital Emmental AG, Standort Langnau i. E.",offiziell,Hochdeutsch inkl. Lokalsprachen,Einfacher Name,,2626488.5,1199196.8,7.786539,46.943333
{5FA887FA-F161-467F-9803-D87D4C430255},Spitalareal,TLM_NUTZUNGSAREAL,{AB3111D8-4B70-43AB-B011-41DF3E3EC66C},"Clinica Santa Chiara SA, Locarno",offiziell,Italienisch inkl. Lokalsprachen,Einfacher Name,,2705142.5,1113749.5,8.8,46.167015
{0B65C18D-46B9-4CFA-9834-234930539FDB},Spitalareal,TLM_NUTZUNGSAREAL,{CE77F163-41A0-43E3-9971-AD5F75A6C44F},"Clinica Fondazione Varini, Orselina",offiziell,Italienisch inkl. Lokalsprachen,Einfacher Name,,2705121.8,1114930.8,8.799995,46.177643
{8B6CFAD5-EEEA-47A0-928E-ECFFD7BAB161},Spitalareal,TLM_NUTZUNGSAREAL,{B4A35497-2420-42FF-95DE-E8E71D2AB5A1},"Clinica Santa Croce, Orselina",offiziell,Italienisch inkl. Lokalsprachen,Einfacher Name,,2704938.8,1115020.6,8.797648,46.17848
{488116F6-CB73-4D7B-98CC-AD812153AEBC},Spitalareal,TLM_NUTZUNGSAREAL,{33D42B20-CDB2-4214-AC0D-54BAC1D900BE},Ospedale Regionale di Locarno,offiziell,Italienisch inkl. Lokalsprachen,Einfacher Name,,2704431.5,1113915.1,8.790833,46.168613
{BF8A4C61-CB4D-4F0B-8BC5-C1001C6EFCE0},Spitalareal,TLM_NUTZUNGSAREAL,{A42B6F77-7C32-46C6-9A00-694A9BB77C8D},"Ospedale Regionale di Bellinzona e Valli, Sede Bellinzona",offiziell,Italienisch inkl. Lokalsprachen,Einfacher Name,,2722582.5,1115933.4,9.026323,46.18371
{01CC81A2-F71F-405C-8AEA-F5985406C645},Spitalareal,TLM_NUTZUNGSAREAL,{47972473-FC10-40B4-BF1D-8FEF25BF6A5B},"Paracelsus Klinik Al Ronc, Castaneda",offiziell,Italienisch inkl. Lokalsprachen,Einfacher Name,,2730983.2,1124501.2,9.137498,46.259182
{10FC217F-A662-43F1-A8D6-805E7BD1F7D5},Spitalareal,TLM_NUTZUNGSAREAL,{12D5A23F-DD43-438B-A86D-E5CB00F9C7F6},"Reha- und Kurklinik Eden, Oberried a.B.",offiziell,Hochdeutsch inkl. Lokalsprachen,Einfacher Name,,2640204.8,1176486.9,7.9646916,46.738365
{B4E3CD30-F6CC-4134-B19A-02367A2CA107},Spitalareal,TLM_NUTZUNGSAREAL,{E0AC354C-FADA-49F8-B982-746445010612},"spitäler fmi ag, Spital Interlaken",offiziell,Hochdeutsch inkl. Lokalsprachen,Einfacher Name,,2630961,1169984.2,7.843307,46.680367
{F9A9C660-4A51-4E4A-8404-5422C13700E0},Spitalareal,TLM_NUTZUNGSAREAL,{7558B80F-6361-452D-9184-F72AFE19F564},"Ospedale Regionale di Bellinzona e Valli, Sede Acquarossa",offiziell,Italienisch inkl. Lokalsprachen,Einfacher Name,,2715251.5,1145643.8,8.938754,46.452217
{8288D1AB-E171-4D98-ADB4-E70A659842A9},Spitalareal,TLM_NUTZUNGSAREAL,{9F82746C-1FC6-41FB-AF09-F1754AD5181D},Psychiatriezentrum Schaffhausen,offiziell,Hochdeutsch inkl. Lokalsprachen,Einfacher Name,,2689071,1284575.9,8.625395,47.70573
{14B376AF-B6EC-4428-BB02-5FEFE4BDB3A7},Spitalareal,TLM_NUTZUNGSAREAL,{148D8D8F-B7F8-4F97-B12D-CF6BA5F64939},Klinik Belair,offiziell,Hochdeutsch inkl. Lokalsprachen,Einfacher Name,,2688972,1284051.5,8.623968,47.70103
{659C9EF6-078B-42FA-AF01-8F55458DC084},Spitalareal,TLM_NUTZUNGSAREAL,{A6C172F4-4352-4E52-9ECD-D2E276EDAB15},Psychiatrische Klinik Königsfelden,offiziell,Hochdeutsch inkl. Lokalsprachen,Einfacher Name,,2658678.2,1259249.6,8.217129,47.481396
{38AC3257-88D6-485F-8919-E028AFCFEBD7},Spitalareal,TLM_NUTZUNGSAREAL,{AA74496B-D806-44C7-996E-985EF4B63E64},RehaClinic Baden,offiziell,Hochdeutsch inkl. Lokalsprachen,Einfacher Name,,2665827.8,1259013,8.311943,47.478592
{042EF4DE-51AC-4AD8-8351-6C22D5F897BB},Spitalareal,TLM_NUTZUNGSAREAL,{1F7B9AD8-6E42-45DA-9DCE-464F058AB686},Kantonsspital Baden AG,offiziell,Hochdeutsch inkl. Lokalsprachen,Einfacher Name,,2663355,1256339,8.278762,47.45479
{CC412EC4-E15F-4998-8DBD-6A3FA301A474},Spitalareal,TLM_NUTZUNGSAREAL,{5F4296E0-63C6-4577-B750-141483063D6B},Spital Bülach,offiziell,Hochdeutsch inkl. Lokalsprachen,Einfacher Name,,2682455.8,1263988,8.533438,47.521458
{2C1C8384-095D-4CD3-96DA-87BC68D9DC4B},Spitalareal,TLM_NUTZUNGSAREAL,{7F8726A9-4B96-41DE-A514-A8F854258298},"GP Medica AG, Klinik Uroviva, Bülach",offiziell,Hochdeutsch inkl. Lokalsprachen,Einfacher Name,,2683151.8,1263340.9,8.542558,47.515553
{8D2CD033-0CA3-4A0B-8E4B-AFA385233FB7},Spitalareal,TLM_NUTZUNGSAREAL,{815CE14A-67B5-457E-83C5-7B77BF3BA685},"Adus Medica AG, Dielsdorf",offiziell,Hochdeutsch inkl. Lokalsprachen,Einfacher Name,,2676305.8,1259135.6,8.450958,47.47856
{52AD7FA7-D445-478F-9801-21E15ACC7523},Spitalareal,TLM_NUTZUNGSAREAL,{80C991FD-FAC2-4AFE-9CCB-6D6B564F5C3E},Asana Spital Leuggern,offiziell,Hochdeutsch inkl. Lokalsprachen,Einfacher Name,,2658587.5,1270286.9,8.21738,47.580666
{1CD2C71F-C79A-4380-9569-B9C6AAD57794},Spitalareal,TLM_NUTZUNGSAREAL,{D26A846B-2E88-4118-808D-90A5EF7D21E0},RehaClinic Bad Zurzach,offiziell,Hochdeutsch inkl. Lokalsprachen,Einfacher Name,,2663883.5,1271410.8,8.28793,47.59028
{BB2F04A2-E90B-4199-A275-CCF2A7D166CE},Spitalareal,TLM_NUTZUNGSAREAL,{E52D06CF-D96B-43B0-A399-1280A05234E3},Klinik für Schlafmedizin Zurzach,offiziell,Hochdeutsch inkl. Lokalsprachen,Einfacher Name,,2663851.8,1271489.4,8.28752,47.590992
{E37DC5C2-652D-4385-A6D9-B629EAE0B301},Spitalareal,TLM_NUTZUNGSAREAL,{8BC95EA9-69BE-47D5-AF09-3BF0118C93E8},Psychiatriezentrum Rheinau,offiziell,Hochdeutsch inkl. Lokalsprachen,Einfacher Name,,2687808.2,1276649.8,8.606999,47.63463
{89B61A1B-43C6-449B-803E-95EBE1197FB3},Spitalareal,TLM_NUTZUNGSAREAL,{5933E0CA-689B-4F12-8E68-9F489D7C0F8A},GZO Spital Wetzikon,offiziell,Hochdeutsch inkl. Lokalsprachen,Einfacher Name,,2703078.8,1242088.8,8.802161,47.321613
{2A02F840-7842-40AD-8A7C-EDC81002E40F},Spitalareal,TLM_NUTZUNGSAREAL,{D438A49B-E125-4E1D-91E6-24AFF5676478},"Geburtshaus Zürcher Oberland, Bäretswil",offiziell,Hochdeutsch inkl. Lokalsprachen,Einfacher Name,,2706472.2,1243339.9,8.847336,47.332325
{A788FCD2-4951-4D50-9D17-60FDA8581926},Spitalareal,TLM_NUTZUNGSAREAL,{0B17A935-0528-4563-85E7-981E3A9CDDF4},Klinik Pyramide Schwerzenbach,offiziell,Hochdeutsch inkl. Lokalsprachen,Einfacher Name,,2691919.8,1249159.9,8.656024,47.386852
{A00D918E-5AFF-45B0-A7F5-5861E8A6DF50},Spitalareal,TLM_NUTZUNGSAREAL,{0A67BA35-8692-4B1A-B958-80214712E8A3},Spital Uster,offiziell,Hochdeutsch inkl. Lokalsprachen,Einfacher Name,,2697126.8,1245471.5,8.7241745,47.352936
{6507EA72-CDE7-411E-BFB1-29F662FE9BAF},Spitalareal,TLM_NUTZUNGSAREAL,{40053656-1A48-4C2B-BF04-4941E574257A},"Rosenklinik am See AG, Rapperswil-Jona",offiziell,Hochdeutsch inkl. Lokalsprachen,Einfacher Name,,2704397.2,1232554.5,8.817382,47.235664
{31A80914-851B-4A75-AF23-5FFE98CD327B},Spitalareal,TLM_NUTZUNGSAREAL,{DDA90A44-BAE0-40DC-AB56-9AC87402A3E7},"Suchtbehandlung Frankental, Zürich",offiziell,Hochdeutsch inkl. Lokalsprachen,Einfacher Name,,2678424.2,1251265.8,8.47768,47.40754
{93AE1482-962E-4D3D-A0BC-9E75EC07D8E2},Spitalareal,TLM_NUTZUNGSAREAL,{C84EBCA2-BD28-4DC3-A7F7-14BC315F492E},Spital Männedorf,offiziell,Hochdeutsch inkl. Lokalsprachen,Einfacher Name,,2695189,1234101.6,8.696119,47.250965
{089EB991-CC81-46E1-BF3F-3536C081820D},Spitalareal,TLM_NUTZUNGSAREAL,{6A3F2EC9-9019-488E-B204-BA714A4210CC},"Psychiatrisches Pflegeheim Bergheim, Uetikon am See",offiziell,Hochdeutsch inkl. Lokalsprachen,Einfacher Name,,2694138.2,1236427.8,8.682728,47.272038
{18BFF088-7996-4B54-8F1D-EC4FA7FF1942},Spitalareal,TLM_NUTZUNGSAREAL,{D4706702-5B37-40AA-82C8-14094D1ACE40},"Privatklinik Hohenegg, Meilen",offiziell,Hochdeutsch inkl. Lokalsprachen,Einfacher Name,,2692438.2,1236689,8.660318,47.274628
{A7AF9120-F9E1-412F-962C-938633A8B198},Spitalareal,TLM_NUTZUNGSAREAL,{52D25BE7-93DA-48D0-810C-3000288BD22C},"Clienia Privatklinik Schlössli, Oetwil am See",offiziell,Hochdeutsch inkl. Lokalsprachen,Einfacher Name,,2696975,1236134.1,8.720148,47.268986
{B6CB2B13-5016-4C37-B803-DB3FFB4AD251},Spitalareal,TLM_NUTZUNGSAREAL,{C91221E6-BAEB-452D-A337-46DF3F3F9EE5},"Spital Linth, Uznach",offiziell,Hochdeutsch inkl. Lokalsprachen,Einfacher Name,,2717794.2,1231492.1,8.993992,47.223854
{22DE11CB-F699-48EC-A3F3-ED77A14B2C83},Spitalareal,TLM_NUTZUNGSAREAL,{7B22BEC6-53AE-464F-81B7-A8F806E6E357},"Spital Limmattal, Schlieren",offiziell,Hochdeutsch inkl. Lokalsprachen,Einfacher Name,,2674860.5,1249672.4,8.430201,47.393623
{49A911F8-C9B6-4CED-9252-4E8FCE1B8C8B},Spitalareal,TLM_NUTZUNGSAREAL,{3C62902D-3560-4AD8-89AD-6190C528D445},Spital Wattwil,offiziell,Hochdeutsch inkl. Lokalsprachen,Einfacher Name,,2724433.2,1239905.9,9.083956,47.298298
{2CC01395-2D3E-495B-899A-439C3B4298EB},Spitalareal,TLM_NUTZUNGSAREAL,{DD8E0F84-AAE4-4FB3-B5C6-E6DE21A3DB8F},Zürcher RehaZentrum Wald,offiziell,Hochdeutsch inkl. Lokalsprachen,Einfacher Name,,2713876,1237260.1,8.943729,47.276413
{E38C4178-1322-4543-A2E2-90165B9BB309},Spitalareal,TLM_NUTZUNGSAREAL,{1101960B-C6ED-465D-9573-52E997300B9A},"Augencenter Talwiesen, Zürich",offiziell,Hochdeutsch inkl. Lokalsprachen,Einfacher Name,,2680807,1247143.9,8.508501,47.370182
{49F0B39B-75A8-4632-8192-1AFA8BE1E27D},Spitalareal,TLM_NUTZUNGSAREAL,{A4760D28-E418-4DD3-B528-300974B4B5B4},"Geburtshaus Delphys, Zürich",offiziell,Hochdeutsch inkl. Lokalsprachen,Einfacher Name,,2680963.8,1247885,8.510709,47.376827
{A87C8886-BA1A-437D-BE70-481A3F981E6D},Spitalareal,TLM_NUTZUNGSAREAL,{0B5777CE-C88D-46F6-84FD-3BB9E9FCD554},"Kinder- und Jugendpsychiatrischer Dienst, Zürich",offiziell,Hochdeutsch inkl. Lokalsprachen,Einfacher Name,,2684504.8,1246319.9,8.557298,47.362305
{E69BAF05-A10F-4A57-A992-0F729174B1EF},Spitalareal,TLM_NUTZUNGSAREAL,{56D3EF8D-3A0D-4E9A-ABD7-D88652F7D0A2},Psychiatrische Universitätsklinik Zürich,offiziell,Hochdeutsch inkl. Lokalsprachen,Einfacher Name,,2685504.5,1245418.6,8.570358,47.354073
{ADC5BD9C-855C-4F01-8904-00F062161631},Spitalareal,TLM_NUTZUNGSAREAL,{5B7E8D0D-D7C5-49BE-9DF3-5F0BA2C4E3BE},"Universitätsklinik Balgrist, Zürich",offiziell,Hochdeutsch inkl. Lokalsprachen,Einfacher Name,,2685861,1245354.9,8.575064,47.35345
{62AD4C70-BEB1-4986-A6F2-383CCEE1DC27},Spitalareal,TLM_NUTZUNGSAREAL,{472A4990-F815-47D8-9643-2021E3D05EEC},"Hirslanden, Klinik Zürich",offiziell,Hochdeutsch inkl. Lokalsprachen,Einfacher Name,,2685950,1245073.9,8.576187,47.350914
{F2FC2475-5BF3-4695-BD19-B4BE252E83B1},Spitalareal,TLM_NUTZUNGSAREAL,{79D4DD5B-3210-4CB8-AB20-DE3F0D4549B7},"Schulthess-Klinik, Zürich",offiziell,Hochdeutsch inkl. Lokalsprachen,Einfacher Name,,2685745,1245172.6,8.573491,47.35183
{E6373F7B-C3F7-4DE7-8268-FED46A8DC433},Spitalareal,TLM_NUTZUNGSAREAL,{26DD81DA-8AEE-4B10-9AD1-7104C4CCE7A8},"Schweizerisches Epilepsie-Zentrum, Zürich",offiziell,Hochdeutsch inkl. Lokalsprachen,Einfacher Name,,2685467,1244814.9,8.569746,47.348648
{E593ABAA-B1C0-405D-921F-BDB895CD7FF4},Spitalareal,TLM_NUTZUNGSAREAL,{7CD3217A-5A65-4FC0-A7D4-7F7C8059CE55},"Klinik Tiefenbrunnen, Zollikon",offiziell,Hochdeutsch inkl. Lokalsprachen,Einfacher Name,,2685355.8,1244253.2,8.568165,47.34361
{9D8524BB-7FFD-4449-91E9-60F7B9755BFB},Spitalareal,TLM_NUTZUNGSAREAL,{71B824CF-04DC-4119-93BF-3D071D020E8E},Spital Zollikerberg,offiziell,Hochdeutsch inkl. Lokalsprachen,Einfacher Name,,2687673.8,1244833.8,8.59895,47.348526
{890F6A25-3B4A-490D-8455-F7F55F778A8D},Spitalareal,TLM_NUTZUNGSAREAL,{A20688D1-A74A-42C7-9C3B-6B0C9B7DC9DA},"Klinik Pyramide am See, Zürich",offiziell,Hochdeutsch inkl. Lokalsprachen,Einfacher Name,,2683878.5,1245841.6,8.548918,47.358086
{04E97383-3DD3-4C9C-9A45-89C5FB5F587F},Spitalareal,TLM_NUTZUNGSAREAL,{1393C7D6-0EF3-4CB8-99D9-F3E8C2368B19},"Vista diagnostics, Zürich",offiziell,Hochdeutsch inkl. Lokalsprachen,Einfacher Name,,2683568,1246943.5,8.545014,47.368034
{759DCB5F-1370-4FED-9EF2-E0709D3087A0},Spitalareal,TLM_NUTZUNGSAREAL,{59DB69F5-93E9-4E46-A168-73FC2369ACB8},"Sune-Egge, Zürich",offiziell,Hochdeutsch inkl. Lokalsprachen,Einfacher Name,,2682733.2,1248460.9,8.534243,47.381786
{6F0DF549-0533-4315-8EF6-7F1949AEB713},Spitalareal,TLM_NUTZUNGSAREAL,{BF8F4D30-3D6F-4D22-89FE-EC9A9314045E},Universitätsspital Zürich,offiziell,Hochdeutsch inkl. Lokalsprachen,Einfacher Name,,2683995.5,1247938.1,8.5508585,47.376923
{828E2C81-1598-4FC5-8B2E-B4FFA716B89B},Spitalareal,TLM_NUTZUNGSAREAL,{0D03ADE8-D429-41F4-8515-CCD63008F3E8},"Kinderspital Zürich, Universitätskinderklinik",offiziell,Hochdeutsch inkl. Lokalsprachen,Einfacher Name,,2684513.2,1247412.6,8.557614,47.37213
{8D2BB61A-BE00-42AF-9A96-D708F0BBF07E},Spitalareal,TLM_NUTZUNGSAREAL,{D47E8E58-3957-414E-8E5E-4A2D225AAE6B},"Privatklinik Bethanien, Zürich",offiziell,Hochdeutsch inkl. Lokalsprachen,Einfacher Name,,2684493,1248376.6,8.55753,47.380806
{359B9F45-F753-4D38-9C4F-0B3BFBEAC5B6},Spitalareal,TLM_NUTZUNGSAREAL,{D024029C-237B-4B55-8DBD-08D10EC0C5FC},"Klinik Susenberg, Zürich",offiziell,Hochdeutsch inkl. Lokalsprachen,Einfacher Name,,2685300.2,1247957,8.568138,47.376926
{5B6CADD9-3948-4C0C-A85E-6A9FD1A228EF},Spitalareal,TLM_NUTZUNGSAREAL,{60E03FFD-B446-4E5E-9CE0-FB4C06EA2AD8},"Limmatklinik, Zürich",offiziell,Hochdeutsch inkl. Lokalsprachen,Einfacher Name,,2681144.2,1249684.8,8.513424,47.39299
{A5CF6434-DA5B-49B0-9698-026D64D6598A},Spitalareal,TLM_NUTZUNGSAREAL,{571A2DB8-14BB-40A2-9BB8-ABAA22E1CAA1},"Stadtspital Waid, Zürich",offiziell,Hochdeutsch inkl. Lokalsprachen,Einfacher Name,,2681672.8,1250303.8,8.520537,47.39849
{447466DD-BC13-4114-82CF-00DB5997693A},Spitalareal,TLM_NUTZUNGSAREAL,{42E68576-46EE-4E1D-A67C-1A2C40E8262E},"Hirslanden, Klinik im Park, Zürich",offiziell,Hochdeutsch inkl. Lokalsprachen,Einfacher Name,,2682579.8,1245233.1,8.531615,47.352776
{8291D998-9E81-41EB-940A-F70C640F5FA9},Spitalareal,TLM_NUTZUNGSAREAL,{42E68576-46EE-4E1D-A67C-1A2C40E8262E},"Hirslanden, Klinik im Park, Zürich",offiziell,Hochdeutsch inkl. Lokalsprachen,Einfacher Name,,2682456.2,1245114,8.529958,47.351723
{7916834F-71BE-4A31-A4A9-5009CF8A8F5A},Spitalareal,TLM_NUTZUNGSAREAL,{42E68576-46EE-4E1D-A67C-1A2C40E8262E},"Hirslanden, Klinik im Park, Zürich",offiziell,Hochdeutsch inkl. Lokalsprachen,Einfacher Name,,2682646,1245069,8.532463,47.35129
{E5671721-98FB-4F4E-89B3-56985DB52BD5},Spitalareal,TLM_NUTZUNGSAREAL,{42E68576-46EE-4E1D-A67C-1A2C40E8262E},"Hirslanden, Klinik im Park, Zürich",offiziell,Hochdeutsch inkl. Lokalsprachen,Einfacher Name,,2682685.8,1244726,8.532927,47.3482
{9C07F3AB-8210-42C8-B19E-347BFE4FDB45},Spitalareal,TLM_NUTZUNGSAREAL,{410F5389-4B58-455A-BB3F-E3A0A9988422},"Stadtspital Triemli, Zürich",offiziell,Hochdeutsch inkl. Lokalsprachen,Einfacher Name,,2679968.5,1246698,8.497319,47.366272
{E895167C-FF7A-4C4D-829F-1E4FF26C2031},Spitalareal,TLM_NUTZUNGSAREAL,{01146B56-CDBE-4E6F-9E90-8807091E123A},Sanatorium Kilchberg,offiziell,Hochdeutsch inkl. Lokalsprachen,Einfacher Name,,2683506.8,1242425.1,8.543361,47.327408
{68938B21-DBD7-4AA0-8A2B-65BE5D475AC3},Spitalareal,TLM_NUTZUNGSAREAL,{E3E870D1-05A9-4A35-86F9-EEA98EF46954},Reha-Zentrum Niederlenz,offiziell,Hochdeutsch inkl. Lokalsprachen,Einfacher Name,,2655909.2,1250647.1,8.179318,47.40427
{15C8DC02-BC79-445C-89F6-CB82C23510BB},Spitalareal,TLM_NUTZUNGSAREAL,{25832E23-1A2F-45F2-B297-DD32164FCEDC},Rehaklinik Bellikon,offiziell,Hochdeutsch inkl. Lokalsprachen,Einfacher Name,,2668327.5,1248923.9,8.343562,47.3876
{BEE24B2A-5DFD-45D1-A23E-F00632C9D11A},Spitalareal,TLM_NUTZUNGSAREAL,{3A45B3F5-190C-4D64-9F9B-EB55B59E0B99},"Asana Gruppe AG, Spital Menziken",offiziell,Hochdeutsch inkl. Lokalsprachen,Einfacher Name,,2656898.8,1233078.5,8.190199,47.246174
{3C33F35E-4259-4E12-B690-6DF1E8143F5D},Spitalareal,TLM_NUTZUNGSAREAL,{19B72E22-758A-4AF1-876A-619F4826BF2D},"Kreisspital für das Freiamt, Muri",offiziell,Hochdeutsch inkl. Lokalsprachen,Einfacher Name,,2667476.2,1236657.8,8.330441,47.27737
{7418F7A4-3A63-489C-9A86-385BCEFB7FDE},Spitalareal,TLM_NUTZUNGSAREAL,{10B1266C-D95B-4F1E-B3D3-5AD4AE63F07F},Rehaklinik Hasliberg,offiziell,Hochdeutsch inkl. Lokalsprachen,Einfacher Name,,2656790.2,1177634.1,8.181831,46.74748
{7385345D-5366-45AF-BFC1-4AA13E40C12F},Spitalareal,TLM_NUTZUNGSAREAL,{2DAB1BFE-5BD8-4B1F-B540-3FC9CEDE6172},"spitäler fmi ag, Gesundheitszentrum Meiringen",offiziell,Hochdeutsch inkl. Lokalsprachen,Einfacher Name,,2656865.8,1175900.9,8.182607,46.731884
{89BC6708-BF1B-4047-BE3E-A815C7B6CAE0},Spitalareal,TLM_NUTZUNGSAREAL,{B0A6BD10-A954-46EB-85EA-28ABAE6F27F2},Privatklinik Meiringen AG,offiziell,Hochdeutsch inkl. Lokalsprachen,Einfacher Name,,2657250.2,1174545.8,8.187466,46.71966
{FEA9C063-B027-4942-AF77-E70BF86D5D3F},Spitalareal,TLM_NUTZUNGSAREAL,{959627DA-ECFD-492A-9B3A-FF6C3A5573E4},"See-Spital, Standort Horgen",offiziell,Hochdeutsch inkl. Lokalsprachen,Einfacher Name,,2687118.5,1235319.2,8.589756,47.26303
{9B35B3B9-43E9-4B4F-875E-404722FFD364},Spitalareal,TLM_NUTZUNGSAREAL,{A8B1991F-D5C0-46DB-A9C6-9E9E25591C24},"Kinderspital Zürich, Rehabilitationszentrum Affoltern a. A.",offiziell,Hochdeutsch inkl. Lokalsprachen,Einfacher Name,,2677814.5,1236774.5,8.467087,47.277283
{38C6216D-1821-4196-897C-99B36ABDD573},Spitalareal,TLM_NUTZUNGSAREAL,{9C4D73FF-8328-40B0-BD38-B39473463140},Bezirksspital Affoltern a.A.,offiziell,Hochdeutsch inkl. Lokalsprachen,Einfacher Name,,2676976,1237627.6,8.456149,47.285053
{529939B1-DAF2-4A85-8BC8-259D6F6BDF19},Spitalareal,TLM_NUTZUNGSAREAL,{22CFF174-A0D2-4F8A-8CD3-8703FC1B4188},"See-Spital, Standort Kilchberg",offiziell,Hochdeutsch inkl. Lokalsprachen,Einfacher Name,,2682964.8,1241609.8,8.536041,47.32014
{4ED29F2A-B3F7-48DB-9EE3-765FCD76BDAB},Spitalareal,TLM_NUTZUNGSAREAL,{CB2BCA2A-93F0-42AE-94E7-3B4EA7BD9BFF},Spital Thusis,offiziell,Hochdeutsch inkl. Lokalsprachen,Einfacher Name,,2752811.2,1173705.4,9.4367485,46.697052
{67D1EFE8-2AFB-44BD-B71B-C1252E355DE9},Spitalareal,TLM_NUTZUNGSAREAL,{AC83859B-B12B-4CDC-9C31-8C7E9C5781E5},"Klinik Beverin, Cazis",offiziell,Hochdeutsch inkl. Lokalsprachen,Einfacher Name,,2752092,1177432.2,9.428582,46.730732
{25EF27AC-B198-4418-A2EB-C40878AEE68A},Spitalareal,TLM_NUTZUNGSAREAL,{04A29CFB-8E59-4467-8E9B-7FD01F408674},"Zuger Kantonsspital AG, Baar",offiziell,Hochdeutsch inkl. Lokalsprachen,Einfacher Name,,2681803.5,1227560.9,8.518126,47.193935
{73251557-108B-43FA-88E3-82740F88E899},Spitalareal,TLM_NUTZUNGSAREAL,{9CFDEE1F-0A03-4201-B853-7FC437B83DA4},"Klinik Adelheid AG, Unterägeri",offiziell,Hochdeutsch inkl. Lokalsprachen,Einfacher Name,,2687411.5,1221782.8,8.591,47.14125
{3D85E6D2-9297-477D-B450-2A89AF453CBF},Spitalareal,TLM_NUTZUNGSAREAL,{D5F748C9-E61A-4103-AF69-6FD99BBB12AD},"Hirslanden, Andreas Klinik Cham Zug",offiziell,Hochdeutsch inkl. Lokalsprachen,Einfacher Name,,2677121.5,1226079.1,8.456097,47.18117
{75E4E498-707C-44E3-BC64-607723489E48},Spitalareal,TLM_NUTZUNGSAREAL,{BE7C3660-9713-4D56-81CA-ADF4547C12B3},"Klinik Meissenberg AG, Zug",offiziell,Hochdeutsch inkl. Lokalsprachen,Einfacher Name,,2681627,1223053.9,8.514981,47.15342
{DDC5407C-8325-4C75-91ED-9C55E58DDDFC},Spitalareal,TLM_NUTZUNGSAREAL,{918D56EC-FDAA-4C43-833F-8B827EEFA489},"Psychiatrische Klinik Zugersee, Oberwil",offiziell,Hochdeutsch inkl. Lokalsprachen,Einfacher Name,,2681441,1222029.9,8.512344,47.144234
{6A323F28-A33C-467B-8057-E77B46D0FA3F},Spitalareal,TLM_NUTZUNGSAREAL,{381DE77E-317D-4168-8BBB-301CA7824833},"Klinik für Schlafmedizin, Luzern",offiziell,Hochdeutsch inkl. Lokalsprachen,Endonym,{8F5D84B9-8F36-4DC4-B70B-F8D4A820D1EC},2667434,1212285.5,8.326241,47.058167
{6A323F28-A33C-467B-8057-E77B46D0FA3F},Spitalareal,TLM_NUTZUNGSAREAL,{726769E1-FE87-48AD-83DE-2C97592DCC73},"Hirslanden, Klinik St. Anna",offiziell,Hochdeutsch inkl. Lokalsprachen,Endonym,{8F5D84B9-8F36-4DC4-B70B-F8D4A820D1EC},2667434,1212285.5,8.326241,47.058167
{8B9546B0-7135-4CA2-92EE-47173F399E18},Spitalareal,TLM_NUTZUNGSAREAL,{D3E706A2-3C53-4E2E-B6B8-5E092D1D3366},Therapiezentrum Meggen,offiziell,Hochdeutsch inkl. Lokalsprachen,Einfacher Name,,2670422.2,1211442.1,8.365441,47.05027
{808DAFFB-99E4-45E6-8FAB-9FCFC1333BB8},Spitalareal,TLM_NUTZUNGSAREAL,{E1099FAF-CE7D-4FF3-B6A5-65795D38C907},"swissana clinic, Meggen",offiziell,Hochdeutsch inkl. Lokalsprachen,Einfacher Name,,2671548.8,1211433.1,8.380262,47.050068
{B914E9A9-08CC-47A1-90E9-DE163AC43ACB},Spitalareal,TLM_NUTZUNGSAREAL,{41CA64BF-4282-48B0-8444-8D1CA7D43ABB},Luzerner Kantonsspital Luzern,offiziell,Hochdeutsch inkl. Lokalsprachen,Einfacher Name,,2665193.5,1212298.1,8.296756,47.058502
{0E512A90-9D08-488C-9705-0ADFC62FFD90},Spitalareal,TLM_NUTZUNGSAREAL,{433E4435-45F5-4BBE-9163-EB90EF576331},"Luzerner Psychiatrie, Klinik Luzern",offiziell,Hochdeutsch inkl. Lokalsprachen,Einfacher Name,,2664966.5,1212155.5,8.293746,47.057243
{49C63984-C8B8-4BD5-A7E8-EBE9C64DA1F2},Spitalareal,TLM_NUTZUNGSAREAL,{D73013B1-4D71-45AB-B51C-1EA1D08ED091},"Paracelsus Spital, Richterswil",offiziell,Hochdeutsch inkl. Lokalsprachen,Einfacher Name,,2695551.8,1229318.2,8.699893,47.207897
{4E5FAC2C-9143-4715-AD1B-71FCA74B4DDF},Spitalareal,TLM_NUTZUNGSAREAL,{B89F46CE-DAAA-4B6B-929A-4FA7A4EF8B8A},Spital Einsiedeln,offiziell,Hochdeutsch inkl. Lokalsprachen,Einfacher Name,,2698705.2,1220783,8.739645,47.130672
{DE61EA95-C6C3-4F6D-A0DB-AA9B3A1076A8},Spitalareal,TLM_NUTZUNGSAREAL,{1444BC1D-5BBB-4F66-BD20-75078055C9F3},Spital Lachen,offiziell,Hochdeutsch inkl. Lokalsprachen,Einfacher Name,,2707659.8,1227432.6,8.859235,47.189075
{F41CFFAC-96F4-4EB9-9531-46ECEDCBD633},Spitalareal,TLM_NUTZUNGSAREAL,{E57DE8D2-078E-4285-81AF-D39BE8636DD3},RehaClinic Glarus,offiziell,Hochdeutsch inkl. Lokalsprachen,Endonym,{C8999568-4A06-4735-ABE2-705925CDB7F5},2723603,1211734.4,9.065259,47.045113
{F41CFFAC-96F4-4EB9-9531-46ECEDCBD633},Spitalareal,TLM_NUTZUNGSAREAL,{F37C991E-ABDA-48F7-B1E1-E669D9A60F95},Kantonsspital Glarus,offiziell,Hochdeutsch inkl. Lokalsprachen,Endonym,{C8999568-4A06-4735-ABE2-705925CDB7F5},2723603,1211734.4,9.065259,47.045113
{8C84EFA6-4C34-413B-931D-2BAE3D6D2298},Spitalareal,TLM_NUTZUNGSAREAL,{2996AB9E-A3D2-41F2-8E97-2779ECAED606},Spital Schwyz,offiziell,Hochdeutsch inkl. Lokalsprachen,Einfacher Name,,2692806.5,1207888.5,8.659262,47.015553
{8FCC39CF-DDC3-412C-A703-9CFA5E713EA4},Spitalareal,TLM_NUTZUNGSAREAL,{AE4A1B14-AE04-4612-B71D-4BDF2451C37A},Geburtshaus Stans,offiziell,Hochdeutsch inkl. Lokalsprachen,Einfacher Name,,2670353.5,1201251,8.362955,46.958614
{B7EC0477-3458-4421-8B78-CF0A0A4A2EA9},Spitalareal,TLM_NUTZUNGSAREAL,{26E0023F-5A99-4860-B313-45858DB4C585},Kantonsspital Nidwalden,offiziell,Hochdeutsch inkl. Lokalsprachen,Einfacher Name,,2669930,1201380.6,8.357412,46.959824
{98841DA4-CB08-43B7-9591-44E529451190},Spitalareal,TLM_NUTZUNGSAREAL,{0AAC6575-0F1F-4F3A-9735-2C52B6E626B0},Seeklinik Brunnen,offiziell,Hochdeutsch inkl. Lokalsprachen,Einfacher Name,,2688647.5,1205642.4,8.604132,46.99592
{2B589DA2-F82A-415A-BBBA-D64A028DFFC7},Spitalareal,TLM_NUTZUNGSAREAL,{C9CEAFA3-B46D-4817-8E4C-1430769494A5},RehaClinic Braunwald,offiziell,Hochdeutsch inkl. Lokalsprachen,Einfacher Name,,2718475.8,1199466.9,8.994602,46.935726
{F8FE66B2-B512-42FA-AF9D-EE551B34B550},Spitalareal,TLM_NUTZUNGSAREAL,{B71694C5-2A2A-48E4-9997-75661F4C3883},Kantonsspital Obwalden,offiziell,Hochdeutsch inkl. Lokalsprachen,Einfacher Name,,2661526,1193507.4,8.245939,46.889835
{D04E44B5-1C75-4A2F-A58A-E302CFFE4BA7},Spitalareal,TLM_NUTZUNGSAREAL,{4B4B50D0-1941-4CBA-A794-A15CCF028781},Kantonsspital Uri,offiziell,Hochdeutsch inkl. Lokalsprachen,Einfacher Name,,2691353.2,1193049.4,8.637173,46.88229
{B37A058C-737B-4DF2-9A31-8CEA86C03871},Spitalareal,TLM_NUTZUNGSAREAL,{D7D5C415-6FFE-4743-B0DC-F34F76A65408},Herz-Neuro-Zentrum Kreuzlingen,offiziell,Hochdeutsch inkl. Lokalsprachen,Einfacher Name,,2730543.5,1278224.9,9.175943,47.641674
{87CC772C-FE8D-4222-9E97-39AB5AABE229},Spitalareal,TLM_NUTZUNGSAREAL,{179E40E1-3062-41FF-B5D5-4A00C0F88E2F},"Spital Thurgau AG, Kantonsspital Frauenfeld",offiziell,Hochdeutsch inkl. Lokalsprachen,Einfacher Name,,2710812,1267534.1,8.910747,47.549175
{F9F3250D-8BF1-4B0A-8912-FF68397729B6},Spitalareal,TLM_NUTZUNGSAREAL,{7061B1B2-263C-451E-AADE-CF33DF318515},"Forel Klinik, Ellikon an der Thur",offiziell,Hochdeutsch inkl. Lokalsprachen,Einfacher Name,,2704413,1268658.4,8.826019,47.560333
{A8306B2E-324F-48EC-AEF1-5D62B3449F2F},Spitalareal,TLM_NUTZUNGSAREAL,{A38370D8-473C-4373-926B-5C871017F143},Spital Wil,offiziell,Hochdeutsch inkl. Lokalsprachen,Einfacher Name,,2722089,1258424.4,9.058024,47.465263
{3F91EC98-ADD7-41CB-818F-B70EA0F417F5},Spitalareal,TLM_NUTZUNGSAREAL,{9EAB22F2-BE16-45F4-8E4D-8EFE889C3A79},Clienia Littenheid AG,offiziell,Hochdeutsch inkl. Lokalsprachen,Einfacher Name,,2718555.2,1255887,9.010489,47.443092
{721AC0BC-CD8A-4977-AAC5-E974C011080E},Spitalareal,TLM_NUTZUNGSAREAL,{B908C7DF-70E6-42E4-A30F-9ECE82B38CD2},kneipp-hof Dussnang AG,offiziell,Hochdeutsch inkl. Lokalsprachen,Einfacher Name,,2715045.2,1254426,8.963587,47.430576
{488DDBAC-72D8-44F7-A191-05E565308DE3},Spitalareal,TLM_NUTZUNGSAREAL,{9C8A8FA9-27FE-48FB-B74E-8DBDEC893B46},Privatklinik Aadorf,offiziell,Hochdeutsch inkl. Lokalsprachen,Einfacher Name,,2710872.2,1260908.1,8.909899,47.489582
{C446D6C7-DF4A-4FB9-BACB-F2E72C114755},Spitalareal,TLM_NUTZUNGSAREAL,{202F63CB-E7E2-4285-B14A-D2845910E41B},Privatklinik Lindberg,offiziell,Hochdeutsch inkl. Lokalsprachen,Einfacher Name,,2697262.8,1262966.1,8.729783,47.510246
{944151B2-B3BC-4B9C-A658-A971805ADCD1},Spitalareal,TLM_NUTZUNGSAREAL,{C1EAD9C9-C48C-444D-9E3E-9C9760AD50A3},Klinik Oberwaid,offiziell,Hochdeutsch inkl. Lokalsprachen,Einfacher Name,,2749380.5,1257472,9.419561,47.451065
{9DC5BA75-B6BA-4D12-8DE2-99027C96D640},Spitalareal,TLM_NUTZUNGSAREAL,{E851E804-E3EB-4877-BD61-7E57F4011812},Geriatrische Klinik St. Gallen,offiziell,Hochdeutsch inkl. Lokalsprachen,Einfacher Name,,2747147,1254955.6,9.389124,47.428944
{06BEF2CF-AD0C-48FA-AD82-8D5618C6B260},Spitalareal,TLM_NUTZUNGSAREAL,{F3D76AEF-D157-4417-8D8C-F317579D728D},"Kantonsspital St. Gallen, Standort Rorschach",offiziell,Hochdeutsch inkl. Lokalsprachen,Einfacher Name,,2755331,1260141.1,9.499363,47.473686
{E1317D02-BC9E-4DE1-874A-085A0939776A},Spitalareal,TLM_NUTZUNGSAREAL,{989FC1E4-64F2-42DD-85B3-5A08D3AE22E1},Spital und Pflegeheim Appenzell,offiziell,Hochdeutsch inkl. Lokalsprachen,Einfacher Name,,2749519.8,1244433.5,9.4170475,47.3338
{424F5763-4C16-4A24-AA89-B12EA38DC574},Spitalareal,TLM_NUTZUNGSAREAL,{D5E14E7C-D204-4FB8-8A91-D6AEC1CC5F14},Klinik Im Hof,offiziell,Hochdeutsch inkl. Lokalsprachen,Einfacher Name,,2750788.2,1241753.9,9.432922,47.309418
{0DEF1DF3-13A4-453D-800B-1A04DE82ADA8},Spitalareal,TLM_NUTZUNGSAREAL,{5525B039-0AD6-412D-8740-231B7DE53884},Reha Seewis,offiziell,Hochdeutsch inkl. Lokalsprachen,Einfacher Name,,2767212.8,1206578,9.637007,46.989185
{387D8036-E5AF-459B-B323-59799988034F},Spitalareal,TLM_NUTZUNGSAREAL,{403EF2BA-D2F6-451C-BD12-7D80EDD54871},Medizinisches Zentrum Bad Ragaz,offiziell,Hochdeutsch inkl. Lokalsprachen,Einfacher Name,,2757028,1207446.5,9.5034685,46.99948
{876A3293-1E6E-4651-A4D2-7D4AF6E89086},Spitalareal,TLM_NUTZUNGSAREAL,{6B15FF2D-A10B-4F0D-8AC3-278F04988B28},"Kliniken Valens, Rehazentrum Walenstadtberg",offiziell,Hochdeutsch inkl. Lokalsprachen,Einfacher Name,,2740043.2,1222705.1,9.284938,47.1405
{67AF3155-F1FC-40A1-8542-246AB0C725B7},Spitalareal,TLM_NUTZUNGSAREAL,{AA93F9CC-59FE-47FE-ABB2-DB1D59B939F7},Regionalspital Surselva Ilanz,offiziell,Hochdeutsch inkl. Lokalsprachen,Einfacher Name,,2734916.5,1182165.1,9.205337,46.776993
{03CB5FED-23DC-4171-A52A-6A139614B55C},Spitalareal,TLM_NUTZUNGSAREAL,{7FE6B01F-EEB0-4DFE-82FD-B90AEEDBCFE3},"Kliniken Valens, Rehazentrum Valens",offiziell,Hochdeutsch inkl. Lokalsprachen,Einfacher Name,,2755542.8,1204078,9.482793,46.969543
{EA6C2A5A-1E33-4DE5-A2B3-94732BF7E1CE},Spitalareal,TLM_NUTZUNGSAREAL,{9E37E46A-D904-4838-AB83-1E462EC880CD},Hochgebirgsklinik Davos-Wolfgang,offiziell,Hochdeutsch inkl. Lokalsprachen,Einfacher Name,,2784382.2,1189276,9.855593,46.829075
{3864E7DB-0484-4F67-BF38-38D67B95F101},Spitalareal,TLM_NUTZUNGSAREAL,{CCD578BF-B51C-4C6C-A77D-FBCE35FBAD51},Kantonsspital Graubünden Standort Fontana (FON),offiziell,Hochdeutsch inkl. Lokalsprachen,Einfacher Name,,2760384,1192128.2,9.542178,46.86094
{DAB75E0E-7803-4F69-B916-1F2F313C9174},Spitalareal,TLM_NUTZUNGSAREAL,{9E081296-912A-4849-87F8-4C00F9CBBD70},Klinik Gut Chur,offiziell,Hochdeutsch inkl. Lokalsprachen,Einfacher Name,,2760051.2,1191241.5,9.537504,46.853043
{D9E08208-C6D7-437E-9B56-930D8060317E},Spitalareal,TLM_NUTZUNGSAREAL,{CB62D85B-BEDD-4819-818C-58F09A6814B0},Psychiatrische Klinik Waldhaus Chur,offiziell,Hochdeutsch inkl. Lokalsprachen,Einfacher Name,,2760253.5,1193069.4,9.5408,46.86943
{C932BB46-CB7F-4118-B38C-D38AC21AF835},Spitalareal,TLM_NUTZUNGSAREAL,{B4EDC8EB-3C53-4D7B-B6AF-EFCEF34B570A},Clinique et Permanence d'Onex,offiziell,Franzoesisch inkl. Lokalsprachen,Einfacher Name,,2497001.2,1115810.5,6.1045895,46.18586
{3BE2E343-6709-4B98-B86C-153E64FE45F5},Spitalareal,TLM_NUTZUNGSAREAL,{CAFE248D-7067-4543-B2E5-D801AEF40E9B},Maison de naissance La Roseraie,offiziell,Franzoesisch inkl. Lokalsprachen,Einfacher Name,,2500314.2,1116152.1,6.14742,46.189434
{0F93F206-F1D0-4F4D-9E08-0798EDB43AAB},Spitalareal,TLM_NUTZUNGSAREAL,{26612EDC-98D2-4C1F-9FC2-2181F706F0AF},Clinique des Grangettes,offiziell,Franzoesisch inkl. Lokalsprachen,Einfacher Name,,2503004.2,1117077.1,6.1820636,46.198147
{2427E681-8667-4C2E-BC34-16E81331CBBE},Spitalareal,TLM_NUTZUNGSAREAL,{26612EDC-98D2-4C1F-9FC2-2181F706F0AF},Clinique des Grangettes,offiziell,Franzoesisch inkl. Lokalsprachen,Einfacher Name,,2503001,1117249.5,6.1819873,46.199696
{4C766501-58BF-44D0-918B-E6C6FC5128B3},Spitalareal,TLM_NUTZUNGSAREAL,{158D0F39-5E19-4D81-9C2B-19699F7597D7},CHUV Hôpital psychiatrique de Prangins,offiziell,Franzoesisch inkl. Lokalsprachen,Einfacher Name,,2509041.8,1139132.5,6.2559543,46.39737
{5BDCEF63-8071-4B3E-91E0-8AA7BF992477},Spitalareal,TLM_NUTZUNGSAREAL,{AE01B364-24EC-47D8-8817-2B2D47EB9837},Clinique la Métairie,offiziell,Franzoesisch inkl. Lokalsprachen,Einfacher Name,,2506844.5,1136516.2,6.2279167,46.373535
{48FBF8DE-BBD2-4DEB-9275-26C953B344A8},Spitalareal,TLM_NUTZUNGSAREAL,{57C3C86C-A484-4528-8128-A4B6707D4E2F},Clinique Bois-Bougy,offiziell,Franzoesisch inkl. Lokalsprachen,Einfacher Name,,2506918,1136398.5,6.2288933,46.372486
{0BB33EF9-12BD-4B3F-A18E-B8AE8756006B},Spitalareal,TLM_NUTZUNGSAREAL,{9EF3DBEB-038C-40D9-8167-9CA7C9200BC3},Clinica Holistica Engiadina,offiziell,Rumantsch Grischun inkl. Lokalsprachen,Einfacher Name,,2801756,1180968.1,10.079507,46.74934
{4FA06C15-8CF4-45F3-8CC7-3D2729C1121F},Spitalareal,TLM_NUTZUNGSAREAL,{AD4B444A-8DAC-47F7-BFD3-01C1A8F0ECC9},Maison de naissance Tilia,offiziell,Franzoesisch inkl. Lokalsprachen,Einfacher Name,,2559968.5,1204676.6,6.9123683,46.991936
{0B34823C-C478-46A7-A918-8D47CF3E6392},Spitalareal,TLM_NUTZUNGSAREAL,{57EA4D65-A36A-471A-AB92-7ABF8E3AE9A1},Geburtshaus Maternité Alpine,offiziell,Hochdeutsch inkl. Lokalsprachen,Einfacher Name,,2595041.5,1156601.1,7.3739753,46.560673
{55A3624E-DB63-4F22-8A86-35A805E7C347},Spitalareal,TLM_NUTZUNGSAREAL,{46387E84-5840-4E2F-84A2-D80E1D08E298},Fondation Rive-Neuve,offiziell,Franzoesisch inkl. Lokalsprachen,Einfacher Name,,2557227.5,1145946.8,6.881829,46.463478
{36957DD3-50D6-43F7-BB91-C0742641B170},Spitalareal,TLM_NUTZUNGSAREAL,{529889D2-C88E-46C8-8912-31F538A1B84B},Clinique CIC Valais,offiziell,Franzoesisch inkl. Lokalsprachen,Einfacher Name,,2578793.8,1110295.2,7.164206,46.143806
{89AAE1E3-F6CD-4F41-946A-5DEBF5AA7BC5},Spitalareal,TLM_NUTZUNGSAREAL,{76E9BAFB-D2CC-455B-961C-BB68B7CD41DE},Hirslanden,offiziell,Hochdeutsch inkl. Lokalsprachen,Einfacher Name,,2682630,1245498.1,8.53233,47.355152
{0CF6B183-2D55-42DB-BCDE-4E6709E16174},Spitalareal,TLM_NUTZUNGSAREAL,{F08BBC36-4F26-43E8-A3CB-1B0A3EFCE080},Reha Andeer,offiziell,Hochdeutsch inkl. Lokalsprachen,Einfacher Name,,2752279.2,1163327.4,9.426355,46.60385
{6C02A718-80E9-4A6B-8E91-38F3B393B3F1},Spitalareal,TLM_NUTZUNGSAREAL,{B5C86EEF-8ED5-453F-8DCC-E9A8FFC2A913},Geburtshaus Ambra,offiziell,Hochdeutsch inkl. Lokalsprachen,Einfacher Name,,2630400,1252634.8,7.841511,47.423817
{8B433393-8D8B-4659-A590-DDA4A5A37D3D},Spitalareal,TLM_NUTZUNGSAREAL,{BB46FEE6-C489-4FCF-B732-BFD8752CAF7F},Adullam Spital Riehen,offiziell,Hochdeutsch inkl. Lokalsprachen,Einfacher Name,,2616313.2,1270571,7.6554775,47.585632
{E092C890-76C5-4C15-A238-4C03DE4877AE},Spitalareal,TLM_NUTZUNGSAREAL,{C68745E0-5C24-4A60-A9A4-24B31C3E56DF},Vista Klinik,offiziell,Hochdeutsch inkl. Lokalsprachen,Einfacher Name,,2610270,1265729.8,7.575033,47.542213
{9449D3CF-0FA1-4101-B501-5D00AB1D45F0},Spitalareal,TLM_NUTZUNGSAREAL,{6DA41D86-DAC1-4EB0-9BEA-97A7C9BFCC68},"Suchthilfe Region Basel, Klinik ESTA",offiziell,Hochdeutsch inkl. Lokalsprachen,Einfacher Name,,2612406,1259873.1,7.6032405,47.489502
{A003FE71-3CB8-42AD-AE20-6D2814D82F2D},Spitalareal,TLM_NUTZUNGSAREAL,{144B51D1-CFA9-4CDB-937A-4736CAAA994A},Geburtshaus Basel,offiziell,Hochdeutsch inkl. Lokalsprachen,Einfacher Name,,2610582.5,1266517.9,7.5792007,47.549297
{11CF7FC9-9492-49E5-9E79-B3D5D14560AA},Spitalareal,TLM_NUTZUNGSAREAL,{66DBA1B9-F303-4710-B58B-48E3F817880A},Rennbahnklinik,offiziell,Hochdeutsch inkl. Lokalsprachen,Einfacher Name,,2614709.8,1264994.8,7.6339774,47.53552
{0E0D8CC8-B51C-41F3-AEEC-FCB91D20F0AE},Spitalareal,TLM_NUTZUNGSAREAL,{67F15B99-A728-4B96-887D-01031CFE7D0A},Geburtshaus TagMond,offiziell,Hochdeutsch inkl. Lokalsprachen,Einfacher Name,,2619276,1262976.9,7.6945324,47.517254
